시설명,소재지도로명주소,소재지지번주소,위도,경도,업종명,전문처리분야명,처리폐기물정보,영업구역,시설·장비명,허가일자,전화번호,관리기관명,데이터기준일자,제공기관코드,제공기관명
동진산업,경상북도 청송군 현동면 청송로 2716-22,,36.28919326,129.0249183,폐기물중간재활용업,파쇄,51-20-21,경상북도 청송군청,파쇄·분쇄시설,2013-07-17,054-872-8551,경상북도 청송군청,2025-12-24,5160000,경상북도 청송군
한라환경산업㈜,제주특별자치도 서귀포시 인정오름로 86번길 63,,33.29240648,126.576083,폐기물중간처분업,,51-22-01+52-23-00+51-24-00+51-25-00+51-26-00+40-04-10+51-21-02+51-33-00+51-32-00+40-04-14,,,2020-11-13,,제주특별자치도 서귀포시청,2025-12-10,6520000,제주특별자치도 서귀포시
이도에코표선 주식회사,제주특별자치도 서귀포시 표선면 세성로 650,,33.35852043,126.798656,폐기물중간처분업,,51-22-01+52-23-00+51-24-00+51-25-00+51-26-00+51-21-02+40-04-14,,,2013-03-06,,제주특별자치도 서귀포시청,2025-12-10,6520000,제주특별자치도 서귀포시
성진산업㈜,제주특별자치도 서귀포시 남원읍 위미항구로 502,,33.31765557,126.6454191,폐기물중간처분업,,51-22-01+52-23-00+51-24-00+51-25-00+51-26-00+40-04-10+51-21-02+51-33-00+51-32-00+40-04-14,,,2012-06-12,,제주특별자치도 서귀포시청,2025-12-10,6520000,제주특별자치도 서귀포시
일승산업㈜,제주특별자치도 서귀포시 성산읍 중산간동로 4364-64,,33.39140232,126.823953,폐기물중간처분업,,51-22-01+52-23-00+51-24-00+51-25-00+51-26-00+40-04-10+51-21-02+51-33-00+51-32-00+40-04-14,,,2011-01-18,,제주특별자치도 서귀포시청,2025-12-10,6520000,제주특별자치도 서귀포시
서귀포산업 주식회사,제주특별자치도 서귀포시 산록남로 1241번길 168,,33.30854591,126.4205082,폐기물중간처분업,,51-22-01+51-23-00+51-24-00+51-25-00+51-26-00+51-21-02+51-33-00+51-32-00+40-04-14,,,2010-06-01,,제주특별자치도 서귀포시청,2025-12-10,6520000,제주특별자치도 서귀포시
혁신환경,제주특별자치도 서귀포시 동홍동로 26번길 8,,33.257222,126.575767,폐기물수집및운반업,,51-22-01+52-23-00+51-24-00+51-25-00+51-26-00+40-02-06+40-02-07+40-02-08+51-28-03+51-02-05+40-03-11+5,,,2011-08-01,,제주특별자치도 서귀포시청,2025-12-10,6520000,제주특별자치도 서귀포시
주식회사 삼보,"경기도 성남시 중원구 둔촌대로 155-1, 중원빌딩 4층 401호 (성남동)",,37.429627,127.136074,폐기물수집및운반업,,40-01-01+40-01-02+40-01-03+40-01-04+40-01-05+40-02-06+40-04-14+40-04-13+40-03-12+40-03-11+40-03-10+4,,,2008-03-04,031-747-8567,경기도 성남시청,2025-12-19,3780000,경기도 성남시
주식회사상록수환경,"경기도 성남시 수정구 모란로 75-1 (태평동,지층)",,37.439848,127.125676,폐기물수집및운반업,,40-01-01+40-01-02+40-01-03+40-01-04+40-01-05+40-02-06+40-04-12+40-04-11+40-04-10+40-04-14+40-04-13+4,,,2007-12-28,031-757-4106,경기도 성남시청,2025-12-19,3780000,경기도 성남시
서진건설환경(주),"경기도 성남시 중원구 마지로163번길 13, 102호 (하대원동, 가나아파트)",,37.426876,127.148569,폐기물수집및운반업,,40-01-01+40-01-02+40-01-03+40-01-04+40-01-05+40-02-06+40-90-90+40-04-14+40-04-13+40-03-12+40-03-11+4,,,2005-07-15,031-754-2061,경기도 성남시청,2025-12-19,3780000,경기도 성남시
(주)서강골재환경,,경기도 성남시 중원구 하대원동 322-7,37.426528,127.147757,폐기물수집및운반업,,40-01-01+40-01-02+40-01-03+40-01-04+40-01-05+40-02-06+40-90-90+40-04-12+40-04-11+40-04-10+40-04-14+4,,,1998-07-18,031-721-5454,경기도 성남시청,2025-12-19,3780000,경기도 성남시
(주)새한산업,"경기도 성남시 중원구 마지로155번길 25-12, 301호 (하대원동, 대흥에버빌)",,37.428465,127.149138,폐기물수집및운반업,,40-01-01+40-01-02+40-04-14,,,2007-10-23,031-758-1962,경기도 성남시청,2025-12-19,3780000,경기도 성남시
(주)도시개발,"경기도 성남시 수정구 대왕판교로 988, 3층 (고등동)",,37.428475,127.102213,폐기물수집및운반업,,40-01-01,,,2007-09-12,031-754-4022,경기도 성남시청,2025-12-19,3780000,경기도 성남시
(주)종합환경,"경기도 성남시 분당구 장미로 189, 매화마을근린상가 103호 (야탑동)",,37.413118,127.142079,폐기물수집및운반업,,40-01-05+40-01-04+40-90-90+40-04-14+40-04-13+40-01-03+40-01-02+40-01-01+40-02-06+40-02-07+40-02-08+4,,,2007-11-09,031-781-6767,경기도 성남시청,2025-12-19,3780000,경기도 성남시
주식회사 모두온,"경기도 성남시 중원구 갈현로 51, 201호(갈현동)",,37.391345,127.076920,폐기물수집및운반업,,51-03-01+51-03-02+51-03-03+51-03-04+51-03-05+51-03-06+51-03-07+51-03-08+51-03-99+51-17-21+51-17-22+5,,,2025-10-20,,경기도 성남시청,2025-12-19,3780000,경기도 성남시
주식회사 하늘환경,"경기도 성남시 분당구 야탑로 251, 다주빌딩 201-2호 (야탑동)",,37.407055,127.146416,폐기물수집및운반업,,51-03-01+51-03-02+51-03-03+51-03-04+51-03-06+51-03-07+51-03-99+51-18-01+51-18-02+51-18-03+51-18-99+5,,,2025-04-29,031-8017-0095,경기도 성남시청,2025-12-19,3780000,경기도 성남시
만능일꾼 김씨네,"경기도 성남시 중원구 둔촌대로101번길 27, 엠타워 C803호(성남동)",,37.432116,127.129799,폐기물수집및운반업,,51-03-01+51-03-02+51-03-06+51-03-07+51-03-99+51-18-01+51-18-02+51-18-03+51-18-99+51-20-21+51-20-23+5,,,2025-04-18,,경기도 성남시청,2025-12-19,3780000,경기도 성남시
㈜더조은환경,"경기도 성남시 수정구 남문로7번길 20-1, 2층 201호 (태평동)",,37.445950,127.127563,폐기물수집및운반업,,51-01-03+51-01-04+51-01-06+51-01-99+51-02-04+51-02-05+51-02-08+51-02-19+51-02-99+51-16-00+51-17-19+5,,,2025-03-26,031-751-2340,경기도 성남시청,2025-12-19,3780000,경기도 성남시
성남그린환경,"경기도 성남시 중원구 둔촌대로 545, B210-104호(상대원동)",,37.432044,127.177375,폐기물수집및운반업,,51-17-29+51-38-01,,,2025-03-20,,경기도 성남시청,2025-12-19,3780000,경기도 성남시
주식회사 더솔,"경기도 성남시 분당구 판교역로192번길 16, 판교타워 703호(삼평동)",,37.397745,127.111433,폐기물수집및운반업,,51-03-01+51-03-02+51-03-03+51-03-04+51-03-05+51-03-06+51-03-07+51-03-08+51-03-99+51-17-29+51-19-00+5,,,2024-11-08,070-7576-1445,경기도 성남시청,2025-12-19,3780000,경기도 성남시
엘에스환경(주),"경기도 성남시 수정구 복정로118번길 27-9, 102호(복정동)",,37.464323,127.129519,폐기물수집및운반업,,51-01-03+51-02-04+51-02-05+51-21-01+51-21-03,,,2024-11-07,031-759-5346,경기도 성남시청,2025-12-19,3780000,경기도 성남시
새길사회적협동조합,"경기도 성남시 분당구 판교로610번길 5, 승덕빌딩 지층 2호",,37.407063,127.140255,폐기물수집및운반업,,51-03-01+51-03-02+51-03-06+51-03-07+51-03-99+51-18-01+51-18-02+51-18-03+51-18-99+51-20-21+51-20-22+5,,,2024-06-28,,경기도 성남시청,2025-12-19,3780000,경기도 성남시
착한일꾼,"경기도 성남시 중원구 둔촌대로101번길 27, 나동 8층 864호",,37.432116,127.129799,폐기물수집및운반업,,51-03-01+51-03-02+51-03-03+51-03-04+51-03-06+51-03-07+51-03-99+51-18-01+51-18-02+51-18-03+51-18-99+5,,,2024-06-14,,경기도 성남시청,2025-12-19,3780000,경기도 성남시
도움E&H,"경기도 성남시 중원구 사기막골로 99, A동 16층 1608호 (상대원동)",,37.438688,127.174180,폐기물수집및운반업,,51-01-01+51-01-02+51-01-99+51-02-19+51-02-99+51-03-99+51-04-99+51-05-99+51-10-01+51-10-99+51-11-01+5,,,2024-01-09,031-766-3574,경기도 성남시청,2025-12-19,3780000,경기도 성남시
(주)일진기술,"경기도 성남시 분당구 동원북로22번길 3, 1층 (동원동)",,37.346114,127.099040,폐기물수집및운반업,,51-01-01+51-01-02+51-01-03+51-01-08+51-02-01+51-02-02+51-02-03+51-02-04+51-02-05+51-02-06+51-21-01+5,,,2022-11-10,031-752-0814,경기도 성남시청,2025-12-19,3780000,경기도 성남시
성순리사이클링,"경기도 성남시 분당구 매화로 51, 로즈프라자 302-3나호 (야탑동)",,37.412126,127.133621,폐기물수집및운반업,,51-03-01+51-03-02+51-03-03+51-03-04+51-03-07+51-03-99+51-14-00+51-18-01+51-18-02+51-18-03+51-18-99+5,,,2022-04-14,,경기도 성남시청,2025-12-19,3780000,경기도 성남시
용진철강,"경기도 성남시 수정구 대왕판교로 1283, 2층 201호 (오야동)",,37.454588,127.106486,폐기물수집및운반업,,51-03-01+51-03-02+51-03-99+51-07-01+51-15-02+51-18-99+51-20-21+51-20-99+51-21-01+51-28-02+51-28-03+5,,,2022-02-24,,경기도 성남시청,2025-12-19,3780000,경기도 성남시
(주)지안로지스,"경기도 성남시 분당구 판교역로192번길 16, 806-A202호 (삼평동)",,37.397745,127.111433,폐기물수집및운반업,,51-20-01+51-20-02+51-20-03+51-20-04+51-20-05+51-20-06+51-20-07+51-20-08+51-20-09+51-20-10+51-20-11+5,,,2020-10-26,031-798-0147,경기도 성남시청,2025-12-19,3780000,경기도 성남시
태성기업,"경기도 성남시 중원구 성남대로1139번길 18, 101호 (성남동)",,37.431502,127.127096,폐기물수집및운반업,,51-03-02,,,2020-03-23,,경기도 성남시청,2025-12-19,3780000,경기도 성남시
그린산업,"경기도 성남시 분당구 새나리로 65, 좌봉 3층 (야탑동)",,37.403713,127.162235,폐기물수집및운반업,,51-27-99,,,2019-12-26,,경기도 성남시청,2025-12-19,3780000,경기도 성남시
(주)신용,"경기도 성남시 중원구 둔촌대로281번길 3, 301호 (하대원동)",,37.429937,127.149195,폐기물수집및운반업,,51-03-01+51-02-04,,,2019-11-27,031-722-3578,경기도 성남시청,2025-12-19,3780000,경기도 성남시
(주)세창환경,경기도 성남시 수정구 탄천로 687 (태평동),,37.452145,127.119389,폐기물수집및운반업,,51-38-01,,,2019-09-25,031-757-1440,경기도 성남시청,2025-12-19,3780000,경기도 성남시
동양자원,"경기도 성남시 수정구 산성대로 413, 203호 (단대동)",,37.448901,127.158276,폐기물수집및운반업,,51-03-01+51-18-01+51-20-06+51-28-02+51-29-01+51-30-02+51-42-00,,,2018-07-13,,경기도 성남시청,2025-12-19,3780000,경기도 성남시
상록수환경(주),"경기도 성남시 수정구 모란로 75-1, 지층 (태평동)",,37.439848,127.125676,폐기물수집및운반업,,51-00-00,,,2017-05-08,031-757-4106,경기도 성남시청,2025-12-19,3780000,경기도 성남시
다온누리(주),"경기도 성남시 분당구 이매로 49, 202호 (이매동, 주영빌딩)",,37.394997,127.126386,폐기물수집및운반업,,51-03-01+51-27-03+51-28-02+51-29-01+51-29-03+51-30-02,,,2016-09-13,031-704-2321,경기도 성남시청,2025-12-19,3780000,경기도 성남시
보성환경,"경기도 성남시 중원구 둔촌대로101번길 27, 807호",,37.432116,127.129799,폐기물수집및운반업,,51-38-01,,,2016-08-05,031-439-2203,경기도 성남시청,2025-12-19,3780000,경기도 성남시
(주)청계이브이,경기도 성남시 수정구 고산동길 7 (고등동),,37.425218,127.095401,폐기물수집및운반업,,51-02-03+51-02-04+51-02-99+51-16-00+51-20-01+51-20-99+51-21-01+51-27-02+51-28-02+51-28-03+51-29-99+5,,,2016-07-13,031-759-0078,경기도 성남시청,2025-12-19,3780000,경기도 성남시
에코스틸,"경기도 성남시 분당구 돌마로 46, 4층 423호 (구미동)",,37.349695,127.106995,폐기물수집및운반업,,51-03-01+51-03-02+51-14-00+51-16-00+51-17-02+51-18-00+51-27-01+51-27-02,,,2016-05-25,,경기도 성남시청,2025-12-19,3780000,경기도 성남시
영광자원,"경기도 성남시 중원구 둔촌대로101번길 27, 엠타워 B836호",,37.432116,127.129799,폐기물수집및운반업,,51-00-00,,,2015-10-28,031-753-4978,경기도 성남시청,2025-12-19,3780000,경기도 성남시
(주)보성씨엔알,"경기도 성남시 분당구 탄천상로 164, 비동 604호",,37.344386,127.105428,폐기물수집및운반업,,51-00-00,,,2015-03-27,031-643-2900,경기도 성남시청,2025-12-19,3780000,경기도 성남시
(주)국진산업,"경기도 성남시 수정구 성남대로1390번길 25-2, b01호 (복정동)",,37.454059,127.129759,폐기물수집및운반업,,51-17-03+51-17-19+51-17-29+51-17-99,,,2015-02-13,,경기도 성남시청,2025-12-19,3780000,경기도 성남시
한빛환경,"경기도 성남시 중원구 원터로 32 (하대원동, 평화빌딩)",,37.430070,127.144722,폐기물수집및운반업,,51-00-00,,,2014-01-07,,경기도 성남시청,2025-12-19,3780000,경기도 성남시
(주)한국환경공사,"경기도 성남시 중원구 둔촌대로 145, 202호 (하대원동)",,37.429280,127.134941,폐기물수집및운반업,,51-00-00,,,2012-04-25,031-754-0231,경기도 성남시청,2025-12-19,3780000,경기도 성남시
다원환경,"경기도 성남시 중원구 사기막골로 99, 에이동 16층 1608호",,37.438688,127.174180,폐기물수집및운반업,,51-00-00,,,2012-04-17,031-762-2574,경기도 성남시청,2025-12-19,3780000,경기도 성남시
대원환경산업(주),"경기도 성남시 중원구 둔촌대로268번길 19, 2층 (하대원동)",,37.427364,127.148716,폐기물수집및운반업,,51-03-01+51-03-02+51-20-21+51-99-00,,,2011-12-30,031-756-2762,경기도 성남시청,2025-12-19,3780000,경기도 성남시
(주)그린나래,경기도 성남시 분당구 탄천로 247 (야탑동),,37.413516,127.118866,폐기물수집및운반업,,51-00-00,,,2011-10-07,031-707-0980,경기도 성남시청,2025-12-19,3780000,경기도 성남시
경지환경,경기도 성남시 수정구 수정로135번길 17-9 (태평동),,37.443464,127.133859,폐기물수집및운반업,,51-00-00,,,2011-07-29,,경기도 성남시청,2025-12-19,3780000,경기도 성남시
주식회사 장수환경,"경기도 성남시 중원구 제일로 18, 301호 (하대원동)",,37.428894,127.137839,폐기물수집및운반업,,51-03-01+51-03-02+51-20-01+51-20-10+51-20-11+51-20-12+51-21-02+51-22-01+51-23-00+51-24-00+51-25-00+5,,,2011-01-11,031-721-4266,경기도 성남시청,2025-12-19,3780000,경기도 성남시
(주)명성환경,,경기도 성남시 수정구 산성동 156,37.457064,127.154063,폐기물수집및운반업,,51-00-00,,,2010-06-30,,경기도 성남시청,2025-12-19,3780000,경기도 성남시
아이케이산업개발(주),"경기도 성남시 분당구 야탑로 237, 야탑동, 백마빌딩 401호",,37.407589,127.144998,폐기물수집및운반업,,51-00-00,,,2008-04-08,031-751-8275,경기도 성남시청,2025-12-19,3780000,경기도 성남시
금강환경,"경기도 성남시 중원구 산성대로 106, 3층 B325호(성남동)",,37.444629,127.129582,폐기물수집및운반업,,51-03-01+51-03-02+51-03-03+51-03-04+51-03-99+51-20-21+51-20-22+51-20-23+51-20-24+51-20-25+51-20-26+5,,,2007-11-26,,경기도 성남시청,2025-12-19,3780000,경기도 성남시
(주)평화환경,경기도 성남시 분당구 장미로92번길 13-3 (야탑동),,37.412529,127.131180,폐기물수집및운반업,,51-00-00,,,2005-12-21,031-752-5432,경기도 성남시청,2025-12-19,3780000,경기도 성남시
(주)대신환경,경기도 성남시 분당구 판교로 790 (야탑동),,37.404829,127.160322,폐기물수집및운반업,,51-00-00,,,2004-02-18,031-745-4695,경기도 성남시청,2025-12-19,3780000,경기도 성남시
㈜우리종합개발,"경기도 성남시 수정구 산성대로 331, 1동 7층 19호(신흥동)",,37.443782,127.152737,폐기물수집및운반업,,51-03-01+51-03-02+51-03-03+51-03-07+51-20-23+51-27-01+51-27-02+51-28-01+51-28-02+51-28-03+51-29-01+5,,,2025-06-24,,경기도 성남시청,2025-12-19,3780000,경기도 성남시
성창환경,"경기도 성남시 중원구 둔촌대로101번길 27, 엠타워 A874호",,37.432138,127.129765,폐기물수집및운반업,,51-03-01+51-03-02+51-03-03+51-03-04+51-03-06+51-03-07+51-03-99+51-07-01+51-07-02+51-15-01+51-15-02+5,,,2024-11-08,,경기도 성남시청,2025-12-19,3780000,경기도 성남시
에스제이환경(주),"경기도 성남시 수정구 위례서일로 34, 8층 804호",,37.464385,127.139500,폐기물수집및운반업,,51-01-06+51-02-01+51-02-03+51-02-04+51-02-99,,,2020-12-30,031-752-1825,경기도 성남시청,2025-12-19,3780000,경기도 성남시
용진철강,"경기도 성남시 수정구 오야로 6, 2층 65호",,37.455132,127.106077,폐기물수집및운반업,,51-03-01+51-20-21+51-20-22+51-20-23+51-20-24+51-20-25+51-20-26+51-20-99+51-28-01+51-28-02+51-28-03+5,,,2018-07-04,,경기도 성남시청,2025-12-19,3780000,경기도 성남시
(주)세창환경,경기도 성남시 수정구 탄천로 687 (태평동),,37.451475,127.119972,폐기물수집및운반업,,51-17-99+51-38-02+51-38-99+51-99-00,,,2020-01-31,031-757-1440,경기도 성남시청,2025-12-19,3780000,경기도 성남시
(주)더솔,"경기도 성남시 분당구 판교역로192번길 16, 판교타워 7층 703호",,37.397771,127.111439,폐기물수집및운반업,,51-03-01+51-03-02+51-03-03+51-03-04+51-03-06+51-03-07+51-03-08+51-03-99+51-12-01+51-20-21+51-20-22+5,,,2019-09-30,070-7576-1445,경기도 성남시청,2025-12-19,3780000,경기도 성남시
(주)이안산업개발,"경기도 성남시 분당구 판교공원로2길 20, 3층 (판교동)",,37.389410,127.091875,폐기물수집및운반업,,51-02-99,,,2019-04-25,031-322-0189,경기도 성남시청,2025-12-19,3780000,경기도 성남시
(주)한국자원트레이드,"경기도 성남시 분당구 수내로 74, 110동 601호",,37.378000,127.118211,폐기물수집및운반업,,51-02-01+51-01-06+51-05-01+51-05-99+51-06-01+51-06-02,,,2018-04-23,,경기도 성남시청,2025-12-19,3780000,경기도 성남시
영진환경(주),"경기도 성남시 중원구 도촌로 32, B01호 (도촌동)",,37.416914,127.151174,폐기물수집및운반업,,51-01-99+51-02-06+51-02-99+51-14-01,,,2018-04-10,031-767-7774,경기도 성남시청,2025-12-19,3780000,경기도 성남시
(주)위생기업사,"경기도 성남시 중원구 사기막골로 124, 메가동 711호",,37.440022,127.177695,폐기물수집및운반업,,51-38-03,,,2017-10-10,031-751-1007,경기도 성남시청,2025-12-19,3780000,경기도 성남시
(주)보성씨엔알,"경기도 성남시 분당구 탄천상로 164, 비동 604호",,37.344109,127.105461,폐기물수집및운반업,,51-01-99+51-02-99+51-13-01+51-17-02+51-17-03+51-17-08+51-17-21+51-17-22+51-17-23+51-17-24+51-17-29+5,,,2017-08-25,031-643-2900,경기도 성남시청,2025-12-19,3780000,경기도 성남시
(주)리오그린텍,"경기도 성남시 중원구 갈마치로 302, A동 16층 1605-2호",,37.440333,127.172640,폐기물수집및운반업,,51-01-02+51-01-04+51-01-06+51-01-08+51-17-02+51-17-07+51-17-19+51-17-29,,,2017-05-25,031-745-3075,경기도 성남시청,2025-12-19,3780000,경기도 성남시
(주)씨이엘,"경기도 성남시 중원구 둔촌대로457번길 8, 802-2호 (상대원동)",,37.432350,127.168633,폐기물수집및운반업,,51-03-01,,,2017-05-11,031-731-8107,경기도 성남시청,2025-12-19,3780000,경기도 성남시
D.S 환경산업,"경기도 성남시 중원구 둔촌대로101번길 27, 엠타워 836-4호 (성남동)",,37.432121,127.129790,폐기물수집및운반업,,51-03-00+51-18-00+51-20-00+51-27-00+51-29-00,,,2016-08-02,,경기도 성남시청,2025-12-19,3780000,경기도 성남시
㈜더조은환경,"경기도 성남시 수정구 남문로7번길 20-1, 2층 201호 (태평동)",,37.445953,127.127547,폐기물수집및운반업,,51-01-01+51-01-02+51-01-03+51-01-04+51-01-05+51-01-06+51-01-07+51-01-08+51-01-99+51-02-01+51-02-02+5,,,2016-06-01,031-751-2340,경기도 성남시청,2025-12-19,3780000,경기도 성남시
모아 환경자원,"경기도 성남시 수정구 논골로 7, 5층 502호 (단대동)",,37.454794,127.160446,폐기물수집및운반업,,51-00-00,,,2015-09-08,,경기도 성남시청,2025-12-19,3780000,경기도 성남시
(주)청계이브이,경기도 성남시 수정구 고산동길 7 (고등동),,37.425141,127.095595,폐기물수집및운반업,,51-02-03+51-02-04+51-02-99+51-03-01+51-08-01+51-08-02+51-08-03+51-08-04+51-08-05+51-08-06+51-11-01+5,,,2015-01-14,031-759-0078,경기도 성남시청,2025-12-19,3780000,경기도 성남시
(주)주명개발,"경기도 성남시 중원구 제일로43번길 6, 2층 202호 (성남동)",,37.430982,127.135860,폐기물수집및운반업,,51-20-00,,,2014-12-09,031-722-6377,경기도 성남시청,2025-12-19,3780000,경기도 성남시
(주)평화환경,경기도 성남시 분당구 장미로92번길 13-3 (야탑동),,37.412512,127.131190,폐기물수집및운반업,,51-00-00,,,2013-09-05,031-752-5432,경기도 성남시청,2025-12-19,3780000,경기도 성남시
삼우환경,,경기도 성남시 중원구 금광동 316,37.444040,127.160569,폐기물수집및운반업,,51-00-00,,,2011-04-05,,경기도 성남시청,2025-12-19,3780000,경기도 성남시
유로통운㈜[사업장배출시설계],"경기도 성남시 분당구 장미로48번길 10, 311호",,37.413082,127.125493,폐기물수집및운반업,,51-00-00,,,2010-09-17,031-701-2278,경기도 성남시청,2025-12-19,3780000,경기도 성남시
(주)명성환경,,경기도 성남시 수정구 산성동 156,37.457069,127.154057,폐기물수집및운반업,,51-00-00,,,2010-06-30,,경기도 성남시청,2025-12-19,3780000,경기도 성남시
(주)대복환경,"경기도 성남시 중원구 성남대로 1124, 6층 (성남동)",,37.429980,127.129856,폐기물수집및운반업,,51-00-00,,,2010-01-05,,경기도 성남시청,2025-12-19,3780000,경기도 성남시
아이케이산업개발(주),"경기도 성남시 분당구 야탑로 237, 야탑동, 백마빌딩 401호",,37.407577,127.145003,폐기물수집및운반업,,51-00-00,,,2008-04-08,031-751-8275,경기도 성남시청,2025-12-19,3780000,경기도 성남시
(주)신용,"경기도 성남시 중원구 둔촌대로281번길 3, 3층 301호 (하대원동)",,37.429923,127.149193,폐기물수집및운반업,,51-00-00,,,2007-08-28,031-722-3578,경기도 성남시청,2025-12-19,3780000,경기도 성남시
(주)한국환경공사,"경기도 성남시 중원구 둔촌대로 145, 2층 (성남동)",,37.429310,127.134937,폐기물수집및운반업,,51-00-00,,,2006-05-26,031-754-0231,경기도 성남시청,2025-12-19,3780000,경기도 성남시
현대자원산업,,경기도 성남시 분당구 야탑동 264-3,37.408658,127.142423,폐기물수집및운반업,,51-00-00,,,2006-05-16,031-704-8997,경기도 성남시청,2025-12-19,3780000,경기도 성남시
(주)대성환경,,"경기도 성남시 중원구 상대원동 517-14, 성남산업단지관리공단 502호",37.432367,127.168625,폐기물수집및운반업,,51-00-00,,,2005-05-06,,경기도 성남시청,2025-12-19,3780000,경기도 성남시
대원환경산업(주),"경기도 성남시 중원구 둔촌대로268번길 19, 2층 (하대원동)",,37.427374,127.148711,폐기물수집및운반업,,51-00-00,,,1998-01-12,031-756-2762,경기도 성남시청,2025-12-19,3780000,경기도 성남시
㈜한국스치로폴,광주광역시 광산구 하남산단천변우로 96(도천동),,35.21488295,126.8143795,폐기물종합재활용업,기타,51-03-06+,전국,,2013-07-08,062-522-0600,광주광역시 광산구청,2025-12-23,6290000,광주광역시
㈜정우화학,광주광역시 광산구 하남산단1번로 33(하남동),,35.18587742,126.7982973,폐기물종합재활용업,기타,51-03-02+51-15-01+51-15-02,전국,,2013-03-06,062-951-8895,광주광역시 광산구청,2025-12-23,6290000,광주광역시
㈜조선우드,광주광역시 광산구 하남산단5번로 99-11(장덕동),,35.19805751,126.8058672,폐기물종합재활용업,기타,51-20-21+51-20-22+51-20-23+51-20-24+51-20-25+51-20-26+51-20-99+40-02-06,전국,,2012-12-06,062-262-6777,광주광역시 광산구청,2025-12-23,6290000,광주광역시
㈜고속에너지,광주광역시 광산구 평동로 987(장록동),,35.1299903,126.7773748,폐기물종합재활용업,기타,51-20-21+51-20-22+51-20-23+51-20-24+51-20-25+51-20-26+51-20-99+51-03-01+51-03-02+51-29-01+40-02-06,전국,,2012-07-27,062-944-5870,광주광역시 광산구청,2025-12-23,6290000,광주광역시
㈜초당산업,광주광역시 광산구 금동학동길 306-16(덕림동),,35.1901422,126.6732882,폐기물종합재활용업,기타,51-20-21+51-20-22+51-20-23+51-20-24+51-20-25+51-20-26+51-20-99,전국,,2012-02-07,062-944-0012,광주광역시 광산구청,2025-12-23,6290000,광주광역시
서일화성,광주광역시 광산구 하남산단3번로 12(장덕동),,35.18831282,126.7954688,폐기물종합재활용업,기타,51-03-01+,전국,,2011-11-04,062-952-3496,광주광역시 광산구청,2025-12-23,6290000,광주광역시
㈜씨씨씨폴리머,광주광역시 광산구 평동산단외로 109(지죽동),,35.13604261,126.754652,폐기물종합재활용업,기타,51-03-01+51-03-08,전국,,2011-09-30,062-384-9996,광주광역시 광산구청,2025-12-23,6290000,광주광역시
(유)호진산업,광주광역시 광산구 북문대로 363-146(신창동),,35.18362521,126.8443026,폐기물중간재활용업,기타,51-03-99+51-20-01+51-20-02+51-20-03+51-20-04+51-20-06+51-20-07+51-20-10+51-20-11+51-20-13+51-20-99,전국,,2023-04-21,,광주광역시 광산구청,2025-12-23,6290000,광주광역시
덕암프라텍,광주광역시 광산구 도천남길 40(도천동),,35.20780436,126.8182299,폐기물중간재활용업,기타,51-03-06+,전국,,2022-07-07,062-962-9127,광주광역시 광산구청,2025-12-23,6290000,광주광역시
대영P&C,광주광역시 광산구 북문대로 341-22(신창동),,35.18859892,126.8537291,폐기물중간재활용업,기타,51-03-03+,전국,,2022-01-11,062-955-5002,광주광역시 광산구청,2025-12-23,6290000,광주광역시
대보자원,광주광역시 광산구 풍영철길로 190-24(운남동),,35.17144132,126.8266589,폐기물중간재활용업,기타,51-03-06+,전국,,2021-03-18,062-959-1230,광주광역시 광산구청,2025-12-23,6290000,광주광역시
주식회사 성신에너지,광주광역시 광산구 평동매화길 5(지죽동),,35.13983376,126.7567711,폐기물중간재활용업,기타,51-03-01+,전국,,2021-03-11,,광주광역시 광산구청,2025-12-23,6290000,광주광역시
오션클린폴리머,광주광역시 광산구 평동산단외로 111-27(지죽동),,35.13686902,126.7542743,폐기물종합재활용업,기타,51-03-01+,전국,,2023-03-08,062-942-9996,광주광역시 광산구청,2025-12-23,6290000,광주광역시
대성이엔비(주),광주광역시 광산구 북문대로420번길 138,,35.19179792,126.8550844,폐기물종합재활용업,기타,51-03-06+,전국,,2022-04-04,062-955-3377,광주광역시 광산구청,2025-12-23,6290000,광주광역시
평동산업자원㈜,광주광역시 광산구 평동산단외로 271(지죽동),,35.14061753,126.7687109,폐기물종합재활용업,기타,51-03-06+,전국,,2019-03-04,062-674-1522,광주광역시 광산구청,2025-12-23,6290000,광주광역시
㈜성신 광주지점,광주광역시 광산구 평동매화길 3-5(지죽동),,35.14022558,126.7565429,폐기물종합재활용업,기타,51-03-06+,전국,,2017-04-17,062-944-9854,광주광역시 광산구청,2025-12-23,6290000,광주광역시
㈜메탈코리아,광주광역시 광산구 평동산단1번로 10(용동),,35.13558247,126.7573891,폐기물종합재활용업,기타,51-03-01+40-02-07,전국,,2016-12-30,062-944-9523,광주광역시 광산구청,2025-12-23,6290000,광주광역시
현대환경(주),광주광역시 광산구 북문대로 342-35(신창동),,35.19126606,126.8556406,폐기물종합재활용업,기타,51-29-02,전국,,2014-08-13,062-714-1466,광주광역시 광산구청,2025-12-23,6290000,광주광역시
㈜디케이보드,광주광역시 광산구 손재로 436-54(오선동),,35.20409466,126.8007508,폐기물종합재활용업,기타,51-03-06+,전국,,2014-02-24,062-952-5595,광주광역시 광산구청,2025-12-23,6290000,광주광역시
㈜하남제일상사 광산지점,광주광역시 광산구 사암로826(도천동),,35.21496302,126.8211689,폐기물종합재활용업,기타,51-03-06+,전국,,2012-05-25,062-959-2240,광주광역시 광산구청,2025-12-23,6290000,광주광역시
(주)메탈링크,광주광역시 광산구 평동산단외로 197(지죽동),,35.14051668,126.7606898,폐기물종합재활용업,기타,51-15-01+51-15-02,전국,,2014-04-17,062-953-6861,광주광역시 광산구청,2025-12-23,6290000,광주광역시
광일산업,광주광역시 광산구 삼도로 2-2(삼거동),,35.16811903,126.6656583,폐기물종합재활용업,기타,51-03-01+,전국,,2014-02-20,062-944-9880,광주광역시 광산구청,2025-12-23,6290000,광주광역시
㈜새광산업,광주광역시 광산구 하남산단2번로 29(하남동),,35.1877161,126.7982499,폐기물종합재활용업,기타,51-03-01+,전국,,2013-08-30,062-943-6810,광주광역시 광산구청,2025-12-23,6290000,광주광역시
㈜송대에코,광주광역시 광산구 동곡로194번길 137(유계동),,35.09271051,126.7888742,폐기물종합재활용업,기타,51-03-06+,전국,,2012-02-24,062-962-0234,광주광역시 광산구청,2025-12-23,6290000,광주광역시
㈜크린환경산업,광주광역시 광산구 삼도봉학길 42(송학동),,35.124875,126.6764501,폐기물종합재활용업,기타,51-20-21+51-20-22+51-20-23+51-20-24+51-20-25+51-20-26+51-20-99,전국,,2013-11-07,062-944-0930,광주광역시 광산구청,2025-12-23,6290000,광주광역시
명성플라스틱,광주광역시 광산구 본량동서로 502(동림동),,35.21058745,126.694863,폐기물종합재활용업,기타,51-20-21+51-20-22+51-20-23+51-20-24+51-20-25+51-20-26+51-20-99,전국,,2013-11-05,062-943-4700,광주광역시 광산구청,2025-12-23,6290000,광주광역시
㈜우리인더스트리,광주광역시 광산구 평동로803번길 117-16(용동),,35.13521055,126.7600046,폐기물종합재활용업,기타,51-03-01+,전국,,2013-11-05,,광주광역시 광산구청,2025-12-23,6290000,광주광역시
삼성환경,광주광역시 서구 월드컵4강로 192-1,광주광역시 서구 내방동 842-5,35.15330058,126.8696559,폐기물수집및운반업,,51-01-99,전국,,2024-09-21,062-372-1888,광주광역시 서구청,2025-12-23,6290000,광주광역시
승빈환경자원,광주광역시 서구 풍서좌로 299번길 10,광주광역시 서구 세하동 930-55,35.12755607,126.8370351,폐기물수집및운반업,,51-01-99,전국,,2024-09-02,062-372-1244,광주광역시 서구청,2025-12-23,6290000,광주광역시
서영스틸환경,광주광역시 서구 하남대로 550번길 39-6,광주광역시 서구 동천동 200,35.1700378,126.8521397,폐기물수집및운반업,,51-99-00,전국,,2024-08-14,,광주광역시 서구청,2025-12-23,6290000,광주광역시
㈜자유환경,,광주광역시 서구 금호동 506,35.13569279,126.8480431,폐기물수집및운반업,,51-01-99,전국,,2024-06-04,062-383-9727,광주광역시 서구청,2025-12-23,6290000,광주광역시
㈜자유환경,,광주광역시 서구 금호동 506,35.13569279,126.8480431,폐기물수집및운반업,,91-99-00,전국,,2024-06-04,062-383-9727,광주광역시 서구청,2025-12-23,6290000,광주광역시
유한회사 디케이메디,광주광역시 서구 마산길 4-6(세하동),광주광역시 서구 세하동 206,35.12593896,126.8317792,폐기물수집및운반업,,51-27-04,전국,,2024-04-04,062-710-9876,광주광역시 서구청,2025-12-23,6290000,광주광역시
㈜제일자원,"광주광역시 서구 상무화원로32번길 23, 402호(치평동)",광주광역시 서구 치평동 1320-5,35.14591142,126.845683,폐기물수집및운반업,,51-99-00,전국,,2023-04-24,062-385-0746,광주광역시 서구청,2025-12-23,6290000,광주광역시
㈜광산환경,광주광역시 서구 무진대로 468 (덕흥동),,35.16041847,126.8319559,폐기물수집및운반업,,51-99-00,전국,,2022-04-14,062-531-6112,광주광역시 서구청,2025-12-23,6290000,광주광역시
광주광역시 서구 시설관리공단,"광주광역시 서구 경열로17번길 9, 6층(농성동)",광주광역시 서구 농성동 269-8,35.15314223,126.8893169,폐기물수집및운반업,,51-99-00,전국,,2021-12-29,062-601-6003,광주광역시 서구청,2025-12-23,6290000,광주광역시
유한회사토비,광주광역시 서구 금화로73번길 6-39(금호동),광주광역시 서구 금호동 757-13,35.13358454,126.8575425,폐기물수집및운반업,,51-27-99,전국,,2021-08-26,062-374-3325,광주광역시 서구청,2025-12-23,6290000,광주광역시
하나메디원,광주광역시 서구 벽진길 43-3(벽진동),광주광역시 서구 벽진동 445,35.13242553,126.8351862,폐기물수집및운반업,,51-27-04,전국,,2020-02-21,062-375-1901,광주광역시 서구청,2025-12-23,6290000,광주광역시
(유)클린메디센타,광주광역시 서구 용두길 59(용두동),광주광역시 서구 용두동 442-18,35.09752514,126.8166863,폐기물수집및운반업,,51-27-04,전국,,2020-02-11,062-268-2681,광주광역시 서구청,2025-12-23,6290000,광주광역시
㈜광주삼우그린,광주광역시 서구 무진대로 499 (덕흥동),광주광역시 서구 덕흥동 42-1,35.16265047,126.8353486,폐기물수집및운반업,,51-27-04,전국,,2020-01-30,062-942-8383,광주광역시 서구청,2025-12-23,6290000,광주광역시
(유)태영환경산업,광주광역시 서구 월드컵4강로112번길 5-17(화정동),광주광역시 서구 화정동 334-100,35.14704151,126.8728833,폐기물수집및운반업,,51-99-00,전국,,2019-02-15,062-374-2464,광주광역시 서구청,2025-12-23,6290000,광주광역시
(유)태영환경산업,광주광역시 서구 월드컵4강로112번길 5-17(화정동),광주광역시 서구 화정동 334-100,35.14704151,126.8728833,폐기물수집및운반업,,51-99-00,전국,,2016-01-11,062-374-2464,광주광역시 서구청,2025-12-23,6290000,광주광역시
성심환경,"광주광역시 서구 화개1로 24번길 9, 108동 1205호(금호동,대주아파트)",광주광역시 서구 금호동 813,35.12815734,126.8571603,폐기물수집및운반업,,51-99-00,전국,,2015-09-14,062-575-6620,광주광역시 서구청,2025-12-23,6290000,광주광역시
제암상사,광주광역시 서구 유덕로 6번길 30-29(유촌동),광주광역시 서구 유촌동 595-8,35.16785949,126.853222,폐기물수집및운반업,,51-99-00,전국,,2014-11-28,062-513-5658,광주광역시 서구청,2025-12-23,6290000,광주광역시
(유)남도자원화,"광주광역시 서구 상무오월로3번길 14-10, 2층(쌍촌동)",광주광역시 서구 쌍촌동 1296-3,35.15674908,126.8602977,폐기물수집및운반업,,51-38-01,전국,,2013-08-16,062-385-0255,광주광역시 서구청,2025-12-23,6290000,광주광역시
(유)아주환경,"광주광역시 서구 치평로 63, 2층(치평동)",광주광역시 서구 치평동 1168-5,35.15308247,126.8471623,폐기물수집및운반업,,51-38-01,전국,,2013-07-16,062-384-2286,광주광역시 서구청,2025-12-23,6290000,광주광역시
(주)만수환경,광주광역시 서구 하남대로 550번길 19-10(동천동),광주광역시 서구 동천동 152,35.1717717,126.8532439,폐기물수집및운반업,,51-99-00,전국,,2009-08-10,062-513-3812,광주광역시 서구청,2025-12-23,6290000,광주광역시
㈜에코비트에너지명성,광주광역시 서구 매월1로 50-4(매월동),광주광역시 서구 매월동 621-7,35.1111644,126.8553541,폐기물수집및운반업,,51-99-00,전국,,1998-06-18,062-675-4200,광주광역시 서구청,2025-12-23,6290000,광주광역시
㈜대명크린,"광주광역시 서구 매월2로 53, 11동 210호(매월동)",광주광역시 서구 매월동 948,35.11622254,126.8602858,폐기물수집및운반업,,51-99-00,전국,,1998-12-21,,광주광역시 서구청,2025-12-23,6290000,광주광역시
대원산업,광주광역시 서구 풍서좌로 305-1(세하동),광주광역시 서구 세하동 930-2,35.12792304,126.8365887,폐기물중간재활용업,파쇄,51-18-01+51-18-02+51-18-99,전국,파쇄분쇄시설,2015-12-14,062-373-7654,광주광역시 서구청,2025-12-23,6290000,광주광역시
거성산업,광주광역시 서구 벽진학두길 19(벽진동),광주광역시 서구 벽진동 213-9,35.13135215,126.8369899,폐기물중간재활용업,파쇄,51-18-01+51-18-02+51-18-99,전국,파쇄분쇄시설,2015-12-08,062-943-9606,광주광역시 서구청,2025-12-23,6290000,광주광역시
정주산업(유),광주광역시 서구 하남대로550번길39-6(동천동),광주광역시 서구 동천동 200,35.1700396,126.8521376,폐기물중간재활용업,,51-03-01+51-03-02+51-27-03,전국,,2015-07-31,062-251-1178,광주광역시 서구청,2025-12-23,6290000,광주광역시
㈜에코비트에너지명성,광주광역시 서구 매월1로 50-4(매월동),광주광역시 서구 매월동 621-7,35.1111644,126.8553541,폐기물중간처분업,,51-99-00+91-99-00,전국,,1999-03-29,062-675-4200,광주광역시 서구청,2025-12-23,6290000,광주광역시
(유)국제비철금속,광주광역시 광산구 도천남길 65(도천동),,35.20874956,126.8192265,폐기물중간재활용업,기타,51-03-01+51-03-99+51-29-01+51-29-02,전국,,2013-06-07,062-955-4948,광주광역시 광산구청,2025-12-23,6290000,광주광역시
광주전남재향군인회,광주광역시 광산구 도천남길 41-46(도천동),,35.20661154,126.8186678,폐기물중간재활용업,기타,51-03-99+51-29-01+51-29-02,전국,,2013-04-30,062-954-0400,광주광역시 광산구청,2025-12-23,6290000,광주광역시
해남의류자원,광주광역시 광산구 쌍내길 15(대산동),,35.1358006,126.6634263,폐기물중간재활용업,기타,51-03-01+51-03-03+51-27-03,전국,,2012-11-29,062-373-8937,광주광역시 광산구청,2025-12-23,6290000,광주광역시
솔라뱅크(유),광주광역시 광산구 금동학동길 306-16(덕림동),,35.1901422,126.6732882,폐기물중간재활용업,기타,51-03-01+51-03-02+51-03-03+51-03-04+51-03-05+51-03-06+51-03-07+51-03-08+51-03-99+51-15-01+51-15-02,전국,,2012-05-31,062-944-1488,광주광역시 광산구청,2025-12-23,6290000,광주광역시
신흥자원㈜,광주광역시 광산구 북문대로420번길150(신창동),,35.19200224,126.8555272,폐기물중간재활용업,기타,51-03-06+,전국,,2012-02-13,062-955-3377,광주광역시 광산구청,2025-12-23,6290000,광주광역시
㈜반도기연,광주광역시 광산구 용아로 627(오선동),,35.19950633,126.8041254,폐기물중간재활용업,기타,51-03-99,전국,,2012-01-11,062-954-3247,광주광역시 광산구청,2025-12-23,6290000,광주광역시
한영기업,광주광역시 광산구 하남산단6번로 24(오선동),,35.20186839,126.797964,폐기물중간재활용업,기타,51-03-01+,전국,,2011-10-23,062-955-1637,광주광역시 광산구청,2025-12-23,6290000,광주광역시
한국전선가공,광주광역시 광산구 풍영정길 93(신창동),,35.18245984,126.844724,폐기물중간재활용업,기타,51-03-99,전국,,2011-10-21,062-956-7181,광주광역시 광산구청,2025-12-23,6290000,광주광역시
초당환경(유),광주광역시 광산구 금동학동길 306-23(덕림동),광주광역시 광산구 덕림동 730-5,35.18886538,126.6718979,폐기물중간처분업,기타,00-00-00,전국,소각시설(3.2톤/시),2008-01-28,062-944-1488,광주광역시 광산구청,2025-12-23,6290000,광주광역시
㈜고속에너지,광주광역시 광산구 평동로 987(장록동),광주광역시 광산구 장록동 57-1,35.1299903,126.7773748,폐기물중간처분업,기타,00-00-00,전국,파쇄시설(5톤/시),2010-05-12,062-944-5870,광주광역시 광산구청,2025-12-23,6290000,광주광역시
㈜슬로,광주광역시 광산구 체암로1826(삼거동),,35.14988788,126.6719298,폐기물중간재활용업,기타,51-03-01+51-03-99,전국,,2019-08-19,062-941-8603,광주광역시 광산구청,2025-12-23,6290000,광주광역시
연합기업㈜,광주광역시 광산구 평동산단외로 303(송촌동),,35.13988651,126.7716027,폐기물중간재활용업,기타,51-03-06+,전국,,2019-07-23,062-945-6480,광주광역시 광산구청,2025-12-23,6290000,광주광역시
㈜디에스케미칼,광주광역시 광산구 노안삼도로 813-12(삼거동),,35.11457079,126.683158,폐기물중간재활용업,기타,51-03-01+,전국,,2019-05-08,062-943-4888,광주광역시 광산구청,2025-12-23,6290000,광주광역시
㈜극동에너지,광주광역시 광산구 평동산단외로 309(송촌동),,35.14021256,126.7732007,폐기물중간재활용업,기타,51-03-01+51-03-02+51-03-03+51-03-04+51-03-05+51-03-06+51-03-07+51-03-09+51-03-99+51-20-01+51-20-02,전국,,2018-12-27,062-959-1815,광주광역시 광산구청,2025-12-23,6290000,광주광역시
케이엠산업㈜,광주광역시 광산구 풍영정길 297-21(신창동),,35.19323164,126.8560133,폐기물중간재활용업,기타,51-03-01+51-03-02+51-03-03+51-03-04+51-03-05+51-03-06+51-03-07+51-03-08+51-03-99+51-20-01+51-20-02,전국,,2018-10-30,062-251-2778,광주광역시 광산구청,2025-12-23,6290000,광주광역시
㈜성신 광주지점,광주광역시 광산구 평동매화길 3-5(지죽동),,35.14022558,126.7565429,폐기물중간재활용업,기타,51-03-01+,전국,,2017-04-03,062-944-9523,광주광역시 광산구청,2025-12-23,6290000,광주광역시
㈜대운 광주지점,광주광역시 광산구 평동영천안길 54(지죽동),,35.13792683,126.7559577,폐기물중간재활용업,기타,51-03-01+,전국,,2016-05-30,062-945-4242,광주광역시 광산구청,2025-12-23,6290000,광주광역시
㈜삼원종합상사,광주광역시 광산구 용아로 487(하남동),,35.18703388,126.8038601,폐기물중간재활용업,기타,51-03-99,전국,,2016-03-31,062-716-3000,광주광역시 광산구청,2025-12-23,6290000,광주광역시
㈜동부화학,광주광역시 광산구 체암로1824(삼거동),,35.15032645,126.6712507,폐기물중간재활용업,기타,51-03-01+51-03-99,전국,,2015-06-19,062-943-5933,광주광역시 광산구청,2025-12-23,6290000,광주광역시
(유)현대수지,광주광역시 광산구 평동산단외로 229(지죽동),,35.14042545,126.7640836,폐기물중간재활용업,기타,51-03-01+,전국,,2013-12-06,062-944-6489,광주광역시 광산구청,2025-12-23,6290000,광주광역시
고려환경산업,광주광역시 광산구 대산로 76-25(대산동),,35.14062364,126.6684492,폐기물중간재활용업,기타,51-03-01+,전국,,2013-11-06,062-943-9887,광주광역시 광산구청,2025-12-23,6290000,광주광역시
㈜황포자원,광주광역시 광산구 북문대로420번길130(신창동),,35.19207678,126.8546196,폐기물중간재활용업,기타,51-03-99,전국,,2013-07-23,062-956-2102,광주광역시 광산구청,2025-12-23,6290000,광주광역시
동양스티로폴공업㈜,광주광역시 광산구 어등대로621번길15-11(소촌동),,35.14959143,126.7901327,폐기물중간재활용업,기타,51-03-06+,전국,,2013-07-22,062-943-0009,광주광역시 광산구청,2025-12-23,6290000,광주광역시
녹진케미칼,광주광역시 광산구 도천북길90(도천동),,35.21509127,126.817895,폐기물중간재활용업,기타,51-03-01+,전국,,2013-07-22,,광주광역시 광산구청,2025-12-23,6290000,광주광역시
명창비철,광주광역시 광산구 하남산단3번로14-66(장덕동),,35.18833492,126.8037063,폐기물중간재활용업,기타,51-03-99,전국,,2013-07-15,062-955-9735,광주광역시 광산구청,2025-12-23,6290000,광주광역시
대우비철,광주광역시 광산구 사암로 776(도천동),,35.21183214,126.8184766,폐기물중간재활용업,기타,51-03-99+51-29-01+51-29-02,전국,,2013-06-25,062-952-2344,광주광역시 광산구청,2025-12-23,6290000,광주광역시
평동푸른자원,광주광역시 광산구 평동산단외로 133(지죽동),,35.13726316,126.7559557,폐기물종합재활용업,기타,51-03-01+,전국,,2013-11-05,062-943-3171,광주광역시 광산구청,2025-12-23,6290000,광주광역시
대흥산업,광주광역시 광산구 평동산단외로 183(지죽동),,35.14046131,126.7589896,폐기물종합재활용업,기타,51-03-01+,전국,,2013-07-18,062-946-1313,광주광역시 광산구청,2025-12-23,6290000,광주광역시
정오자원,광주광역시 광산구 하남산단3번로 14-18(장덕동),,35.18830331,126.7983993,폐기물종합재활용업,기타,51-03-01+,전국,,2013-07-15,062-952-9363,광주광역시 광산구청,2025-12-23,6290000,광주광역시
(유)초지,광주광역시 광산구 대산로 230-19(내산동),,35.1454891,126.6626144,폐기물종합재활용업,기타,51-17-29+51-17-19,전국,,2013-07-10,062-944-4768,광주광역시 광산구청,2025-12-23,6290000,광주광역시
㈜성철환경개발,경기도 오산시 가장로 595-65 (가장동),,37.16144801,127.0421246,폐기물수집및운반업,,40-02-07+40-01-00,전국,파쇄시설 200톤/hr*1기 외,1998-04-01,031-375-1387,경기도 오산시청,2025-12-22,4000000,경기도 오산시
(주)케이지환경,경기도 오산시 경기대로 78-37 (갈곶동),,37.13210025,127.0753375,폐기물종합재활용업,,51-99-00,전국,"절단시설 7.5kW, 탈피시설 1.5kW외",2020-06-08,070-4280-5661,경기도 오산시청,2025-12-22,4000000,경기도 오산시
한국수출포장공업㈜,경기도 오산시 황새로 149번길 11(누읍동),,37.13945419,127.0596402,폐기물종합재활용업,,51-03-01+51-03-02+91-04-00+91-06-03,전국,소각시설 3900kg/hr*1기외,2007-04-19,031-373-2981,경기도 오산시청,2025-12-22,4000000,경기도 오산시
㈜대림제지,경기도 오산시 황새로 169 (누읍동),,37.14054906,127.0612443,폐기물종합재활용업,,51-03-01+51-03-02+51-20-99,전국,소각시설 3500kg/hr*1기외,2006-06-23,031-373-7670,경기도 오산시청,2025-12-22,4000000,경기도 오산시
진양트리,경기도 오산시 경기대로 822-34 (외삼미동),,37.19323798,127.0466459,폐기물종합재활용업,,51-20-00,전국,분쇄시설  300마력*1기 외,2001-05-08,031-372-3217,경기도 오산시청,2025-12-22,4000000,경기도 오산시
㈜알파자원,경기도 오산시 경기대로 52-46(갈곶동),,37.12828726,127.0744185,폐기물종합재활용업,,51-30-02,전국,파쇄시설15PH*1기 외,2000-09-14,031-377-6010,경기도 오산시청,2025-12-22,4000000,경기도 오산시
㈜성철환경개발,경기도 오산시 가장로 595-65 (가장동),,37.16144801,127.0421246,폐기물중간재활용업,,51-03-01+40-02-07+40-01-00,전국,파쇄 분쇄 422kW 선별시설 15kW,2002-07-12,031-375-1387,경기도 오산시청,2025-12-22,4000000,경기도 오산시
㈜알엠,경기도 오산시 동부대로 291-12 (갈곶동),,37.12827279,127.0771838,폐기물중간재활용업,,51-03-01+51-03-02+51-27-02+51-20-01+51-99-00,전국,분쇄시설 100HP*8기 외 차량 5대,2002-07-12,031-378-9577,경기도 오산시청,2025-12-22,4000000,경기도 오산시
이도에코오산,경기도 오산시 황새로 149번길 55(누읍동),,37.14079641,127.0559347,폐기물수집및운반업,,51-03-01+51-03-02+51-27-02+51-20-21,전국,소각시설 2900kg/hr*1기외,1995-11-27,031-374-4859,경기도 오산시청,2025-12-22,4000000,경기도 오산시
성수골재,경기도 오산시 벌음1길 8-19,,37.13982238,127.036176,폐기물수집및운반업,,40-01-00+40-02-00,전국,수집운반 차량,2014-10-24,031-374-8123,경기도 오산시청,2025-12-22,4000000,경기도 오산시
㈜더클린환경개발,"경기도 오산시 세마역로19번길 37-4, 102호",,37.183308,127.0441273,폐기물수집및운반업,,51-03-01+51-03-02+51-01-99+51-02-99,전국,수집운반 차량,2022-04-15,031-376-2070,경기도 오산시청,2025-12-22,4000000,경기도 오산시
신한환경㈜오산지점,경기도 오산시 오산로 385,,37.16088588,127.0656162,폐기물수집및운반업,,51-03-01+51-03-02+51-01-99+51-02-99,전국,수집운반 차량,2014-06-30,031-611-7098,경기도 오산시청,2025-12-22,4000000,경기도 오산시
㈜알엠,경기도 오산시 동부대로 291-12 (갈곶동),,37.12827279,127.0771838,폐기물수집및운반업,,51-03-01+51-03-02+51-27-02+51-20-01+51-99-00,전국,수집운반 차량,2013-09-13,031-372-5144,경기도 오산시청,2025-12-22,4000000,경기도 오산시
이도에코오산,경기도 오산시 황새로 149번길 55(누읍동),,37.14079641,127.0559347,폐기물수집및운반업,,51-03-01+51-03-02+51-27-02+51-20-21,전국,수집운반 차량,2006-11-24,031-374-4859,경기도 오산시청,2025-12-22,4000000,경기도 오산시
㈜성철환경개발,경기도 오산시 가장로 595-49(가장동),,37.16019392,127.0423549,폐기물수집및운반업,,51-03-01+40-02-07+40-01-00,전국,수집운반 차량,2005-06-08,031-374-7748,경기도 오산시청,2025-12-22,4000000,경기도 오산시
동인환경자원,경기도 오산시 수목원로 610,,37.18621557,127.0419376,폐기물수집및운반업,,91-04-00,전국,수집운반 차량,2010-05-14,031-376-4522,경기도 오산시청,2025-12-22,4000000,경기도 오산시
㈜나눔,"경기도 오산시 내삼미로79번길 19, 504호",,37.16946535,127.0643748,폐기물수집및운반업,,51-99-00,전국,수집운반 차량,2002-07-29,031-376-6135,경기도 오산시청,2025-12-22,4000000,경기도 오산시
신영환경㈜,경기도 오산시 궐리사로 38,,37.16003673,127.0566914,폐기물수집및운반업,,91-99-00,전국,수집운반 차량,2008-10-13,031-378-5421,경기도 오산시청,2025-12-22,4000000,경기도 오산시
대신환경,경기도 오산시 경기동로 8번길22,,37.15563248,127.074539,폐기물수집및운반업,,51-99-00,전국,수집운반 차량,2007-07-19,031-375-4113,경기도 오산시청,2025-12-22,4000000,경기도 오산시
성진산업,경기도 오산시 양산로 221(양산동),,37.18988473,127.0127957,폐기물수집및운반업,,51-03-01+51-03-02+51-20-21,전국,수집운반 차량,2003-01-27,031-373-2563,경기도 오산시청,2025-12-22,4000000,경기도 오산시
대한환경㈜,경기도 오산시 경기대로 148번길 8,,37.13778212,127.0741154,폐기물수집및운반업,,51-99-00,전국,수집운반 차량,2002-05-09,031-372-7102,경기도 오산시청,2025-12-22,4000000,경기도 오산시
미래환경자원개발㈜,경기도 오산시 독산성로 301(지곶동),,37.18194762,127.0308607,폐기물수집및운반업,,91-06-00,전국,수집운반 차량,2001-11-01,031-238-7989,경기도 오산시청,2025-12-22,4000000,경기도 오산시
신화환경㈜,경기도 오산시 서동로 65번길 44(서동),,37.14853636,127.0355841,폐기물수집및운반업,,91-06-00,전국,수집운반 차량,2001-03-07,031-377-8249,경기도 오산시청,2025-12-22,4000000,경기도 오산시
대명산업개발자원,경기도 오산시 두곡로 26,,37.13172128,127.0472313,폐기물수집및운반업,,91-04-00,전국,수집운반 차량,2013-10-07,031-378-8553,경기도 오산시청,2025-12-22,4000000,경기도 오산시
㈜가온이엔티,경기도 오산시 경기동로 161-9(부산동),,37.1596051,127.089466,폐기물수집및운반업,,91-06-00,전국,수집운반 차량,2006-08-11,031-376-0940,경기도 오산시청,2025-12-22,4000000,경기도 오산시
태양자원,경기도 오산시 양산로 351,,37.19611003,127.0237642,폐기물수집및운반업,,91-04-00,전국,수집운반 차량,2011-06-17,031-376-5255,경기도 오산시청,2025-12-22,4000000,경기도 오산시
㈜믿음환경산업,경기도 오산시 오산로 247,,37.14920711,127.0682737,폐기물수집및운반업,,91-02-00,전국,수집운반 차량,2011-01-31,031-375-0391,경기도 오산시청,2025-12-22,4000000,경기도 오산시
㈜삼정환경,경기도 오산시 남부대로 446,,37.13343105,127.083379,폐기물수집및운반업,,91-02-00,전국,수집운반 차량,2009-02-18,1644-9539,경기도 오산시청,2025-12-22,4000000,경기도 오산시
㈜펩스유통,경기도 오산시 오산천로 248(오산동),,37.15491024,127.0687992,폐기물수집및운반업,,91-02-00,전국,수집운반 차량,2005-12-28,031-374-7277,경기도 오산시청,2025-12-22,4000000,경기도 오산시
과천산업㈜,경기도 과천시 관문로92 (101동 1821호),,37.42979172,126.9909161,폐기물수집및운반업,,91-99-00,경기도 과천시,,2002-05-21,02-507-7209,경기도 과천시,2026-01-21,3970000,경기도 과천시
신영산업㈜,"경기도 과천시 별양상가1로 18(별양동, 과천오피스텔 610호)",,37.42756092,126.9924891,폐기물수집및운반업,,91-99-00,경기도 과천시,,2010-01-04,02-504-5992,경기도 과천시,2026-01-21,3970000,경기도 과천시
대정위생㈜,"경기도 과천시 별양상가1로 18(별양동, 과천오피스텔 906호)",,37.42756092,126.9924891,폐기물수집및운반업,,91-99-00,경기도 과천시,,2011-05-16,02-503-0967,경기도 과천시,2026-01-21,3970000,경기도 과천시
현대환경(합자),"경기도 과천시 별양상가2로 20(별양동, 새서울프라자4층 6호)",,37.42682749,126.9925558,폐기물수집및운반업,,91-99-00,경기도 과천시,,2011-01-29,02-504-2870,경기도 과천시,2026-01-21,3970000,경기도 과천시
개운환경㈜,"경기도 과천시 별양상가1로 18(별양동, 과천오피스텔 906호)",,37.42756092,126.9924891,폐기물수집및운반업,,91-99-00,경기도 과천시,,1999-09-29,02-502-4946,경기도 과천시,2026-01-21,3970000,경기도 과천시
도시환경,제주특별자치도 서귀포시 대정읍 상모이교로39번길 10,,33.228172,126.2691471,폐기물수집및운반업,,91-01-00+91-02-00+91-04-00+91-05-00+91-06-01+91-06-02+91-18-01+91-18-02+91-99-00,,,2018-01-19,,제주특별자치도 서귀포시청,2025-12-10,6520000,제주특별자치도 서귀포시
대성기업 주식회사,제주특별자치도 서귀포시 도순로 42,,33.2507761,126.4773185,폐기물수집및운반업,,51-01-00,,,2016-07-27,,제주특별자치도 서귀포시청,2025-12-10,6520000,제주특별자치도 서귀포시
대성기업 주식회사,제주특별자치도 서귀포시 도순로 42,,33.2507761,126.4773185,폐기물수집및운반업,,91-00-00,,,2016-03-04,,제주특별자치도 서귀포시청,2025-12-10,6520000,제주특별자치도 서귀포시
농업회사법인㈜한라산바이오,제주특별자치도 서귀포시 안덕면 한창로 732-14,,33.32125737,126.3357932,폐기물종합재활용업,,51-01-00+51-17-00+51-38-03,,,2015-03-30,,제주특별자치도 서귀포시청,2025-12-10,6520000,제주특별자치도 서귀포시
농업회사법인㈜인성산업,제주특별자치도 서귀포시 대정읍 일주서로3000번길 151,,33.2582638,126.2297035,폐기물종합재활용업,,51-17-29,,,2021-01-13,,제주특별자치도 서귀포시청,2025-12-10,6520000,제주특별자치도 서귀포시
남원자원,제주특별자치도 서귀포시 남원읍 태신로 175,,33.3012516628,126.7414272899,폐기물중간재활용업,,51-03-01+91-18-02,,,2025-11-24,,제주특별자치도 서귀포시청,2025-12-10,6520000,제주특별자치도 서귀포시
공단미래자원,제주특별자치도 서귀포시 토평공단로127번길 15,,33.2919452231,126.58192059,폐기물수집및운반업,,51-03-01+51-03-02+51-03-03+51-15-01+51-15-02+51-20-06+51-20-10+51-27-03+51-28-01+51-28-02+51-28-03+5,,,2024-11-15,,제주특별자치도 서귀포시청,2025-12-10,6520000,제주특별자치도 서귀포시
가마자원,제주특별자치도 서귀포시 표선면 세성로 114-10,,33.31666843,126.8031692,폐기물중간재활용업,,51-03-06+51-33-00,,,2024-01-25,,제주특별자치도 서귀포시청,2025-12-10,6520000,제주특별자치도 서귀포시
가마자원,제주특별자치도 서귀포시 표선면 세성로 114-10,,33.31666843,126.8031692,폐기물수집및운반업,,51-03-01+51-03-02+51-03-05+51-03-06+51-03-07+51-03-08+51-15-00+51-18-01+51-18-02+51-20-01+51-20-06+5,,,2018-07-18,,제주특별자치도 서귀포시청,2025-12-10,6520000,제주특별자치도 서귀포시
가마자원,제주특별자치도 서귀포시 표선면 세성로 114-10,,33.31666843,126.8031692,폐기물수집및운반업,,51-22-01+52-23-00+51-24-00+51-25-00+51-26-00+40-02-06+40-02-07+40-02-08+51-28-03+40-03-11+51-30-01+4,,,2018-11-30,,제주특별자치도 서귀포시청,2025-12-10,6520000,제주특별자치도 서귀포시
(사)일하는사람들,제주특별자치도 서귀포시 남원읍 서성로810번길 216-3,,33.3158444,126.6893395,폐기물종합재활용업,,51-17-01,,,2012-03-06,,제주특별자치도 서귀포시청,2025-12-10,6520000,제주특별자치도 서귀포시
에코텍,"경기도 성남시 중원구 순환로 165, 807호(상대원동, 포스테크노)",,37.438422,127.178036,폐기물중간재활용업,,51-29-99,,,2005-07-05,,경기도 성남시청,2025-12-19,3780000,경기도 성남시
청인개발㈜,"경기도 성남시 중원구 도촌로 8, 1동 304호",,37.414868,127.150639,폐기물수집및운반업,,40-01-01+40-01-02+40-01-03+40-01-04+40-01-05+40-02-06+40-04-14+40-04-13+40-03-12+40-03-11+40-03-10+4,,,2024-03-05,031-722-6199,경기도 성남시청,2025-12-19,3780000,경기도 성남시
㈜지안로지스,"경기도 성남시 분당구 판교역로 192번길 16, 806호 A202(삼평동, 판교타워)",,37.397745,127.111433,폐기물수집및운반업,,40-90-90,,,2025-05-08,031-798-0147,경기도 성남시청,2025-12-19,3780000,경기도 성남시
미르건설㈜,"경기도 성남시 중원구 마지로 155번길 25-12, 2층 202호(하대원동)",,37.428465,127.149138,폐기물수집및운반업,,40-01-01+40-01-02+40-01-03+40-01-04+40-01-05+40-02-06+40-90-90+40-04-12+40-04-11+40-04-10+40-04-14+4,,,2024-02-19,031-757-1583,경기도 성남시청,2025-12-19,3780000,경기도 성남시
용진철강,"경기도 성남시 수정구 대왕판교로 1283, 2층 201호 (오야동)",,37.454588,127.106486,폐기물수집및운반업,,40-90-90,,,2022-02-24,,경기도 성남시청,2025-12-19,3780000,경기도 성남시
주식회사 이안산업개발,"경기도 성남시 분당구 판교공원로2길 20, 3층 301호 (판교동)",,37.389415,127.091862,폐기물수집및운반업,,40-01-01+40-01-02+40-01-03+40-01-04+40-01-05+40-02-06+40-90-90+40-04-12+40-04-11+40-04-10+40-04-14+4,,,2023-04-06,031-322-0189,경기도 성남시청,2025-12-19,3780000,경기도 성남시
주식회사 신화환경,"경기도 성남시 중원구 자혜로8번길 25, 지층 (금광동)",,37.448372,127.159736,폐기물수집및운반업,,40-01-01+40-01-02+40-01-03+40-01-04+40-01-05+40-02-06+40-90-90+40-04-12+40-04-11+40-04-10+40-04-14+4,,,2022-08-23,031-745-8062,경기도 성남시청,2025-12-19,3780000,경기도 성남시
동양건폐산업개발,"경기도 성남시 분당구 벌말로50번길 42, 로잔티움파크 134호 (야탑동)",,37.411277,127.142920,폐기물수집및운반업,,40-01-01+40-01-02+40-01-03+40-01-04+40-01-05+40-02-06+40-90-90+40-04-12+40-04-11+40-04-10+40-04-14+4,,,2022-03-29,031-701-9330,경기도 성남시청,2025-12-19,3780000,경기도 성남시
(주)도시환경건설,"경기도 성남시 분당구 판교로 723, 분당테크노파크 비동 201-1호 (야탑동)",,37.405623,127.153831,폐기물수집및운반업,,40-01-01+40-01-02+40-01-03+40-01-04+40-01-05+40-02-06+40-90-90+40-04-12+40-04-11+40-04-10+40-04-14+4,,,2022-03-28,031-758-0901,경기도 성남시청,2025-12-19,3780000,경기도 성남시
주식회사 태원산업개발,"경기도 성남시 중원구 도촌로7번길 3-15, 101호 (도촌동)",,37.414742,127.148836,폐기물수집및운반업,,40-01-01,,,2019-10-08,031-754-2575,경기도 성남시청,2025-12-19,3780000,경기도 성남시
경기건폐산업(주),"경기도 성남시 중원구 광명로 148, 401호 (성남동)",,37.437803,127.144536,폐기물수집및운반업,,40-01-01+40-01-02+40-01-03+40-01-04+40-01-05+40-02-06+40-90-90+40-04-12+40-04-11+40-04-10+40-04-14+4,,,2018-05-24,031-735-0777,경기도 성남시청,2025-12-19,3780000,경기도 성남시
㈜하늘환경,"경기도 성남시 분당구 야탑로 251, 다주빌딩 2층 201-2호 (야탑동)",,37.407055,127.146416,폐기물수집및운반업,,40-01-01+40-01-02+40-01-03+40-01-04+40-01-05+40-02-06+40-04-14+40-04-13+40-03-12+40-03-11+40-03-10+4,,,2016-04-05,031-759-0078,경기도 성남시청,2025-12-19,3780000,경기도 성남시
영광자원,"경기도 성남시 중원구 둔촌대로 101번길 27, 엠타워 B836호",,37.432116,127.129799,폐기물수집및운반업,,40-01-01+40-01-02+40-01-03+40-01-04+40-01-05+40-02-06+40-90-90+40-04-12+40-04-11+40-04-10+40-04-14+4,,,2014-11-06,031-753-4978,경기도 성남시청,2025-12-19,3780000,경기도 성남시
대주환경,"경기도 성남시 중원구 둔촌대로 180, 3층 (하대원동)",,37.429515,127.138470,폐기물수집및운반업,,40-01-01+40-01-02+40-01-03+40-01-04+40-01-05+40-02-06+40-90-90+40-04-12+40-04-11+40-04-10+40-04-14+4,,,2014-05-01,031-752-5115,경기도 성남시청,2025-12-19,3780000,경기도 성남시
(주)청계이브이,경기도 성남시 수정구 고산동길 7 (고등동),,37.425218,127.095401,폐기물수집및운반업,,40-01-01+40-01-02+40-01-03+40-01-04+40-01-05+40-02-06+40-90-90+40-04-12+40-04-11+40-04-10+40-04-14+4,,,2014-01-22,031-759-0078,경기도 성남시청,2025-12-19,3780000,경기도 성남시
수도개발중기(주),"경기도 성남시 중원구 둔촌대로 244-2, 동아빌딩 3층 301호 (하대원동)",,37.428114,127.145519,폐기물수집및운반업,,40-01-01+40-01-02+40-01-03+40-01-04+40-01-05+40-02-06+40-90-90+40-04-12+40-04-11+40-04-10+40-04-14+4,,,2012-07-06,031-722-0405,경기도 성남시청,2025-12-19,3780000,경기도 성남시
(주)디케이토건중기,"경기도 성남시 중원구 도촌로 12, 2층 204호 (도촌동, 도촌대덕프라자)",,37.415203,127.150756,폐기물수집및운반업,,40-01-01+40-01-02+40-01-03+40-01-04+40-01-05+40-02-06+40-90-90+40-04-12+40-04-11+40-04-10+40-04-14+4,,,2011-11-14,031-755-9991,경기도 성남시청,2025-12-19,3780000,경기도 성남시
약수환경토건(주),"경기도 성남시 중원구 도촌로 8, 스마트시티 3층 305호 (도촌동)",,37.414868,127.150639,폐기물수집및운반업,,40-01-01+40-01-02+40-01-03+40-01-04+40-01-05+40-02-06+40-90-90+40-04-12+40-04-11+40-04-10+40-04-14+4,,,2011-11-14,031-753-3666,경기도 성남시청,2025-12-19,3780000,경기도 성남시
주식회사 장수환경,경기도 성남시 중원구 제일로 18 (하대원동),,37.428898,127.137847,폐기물수집및운반업,,40-01-01+40-01-02+40-01-03+40-01-04+40-01-05+40-02-06+40-90-90+40-04-12+40-04-11+40-04-10+40-04-14+4,,,2010-02-08,031-721-4266,경기도 성남시청,2025-12-19,3780000,경기도 성남시
수도개발(주),"경기도 성남시 중원구 둔촌대로 244-2, 동아빌딩 3층 301호 (하대원동)",,37.428114,127.145519,폐기물수집및운반업,,40-01-01+40-01-02+40-01-03+40-01-04+40-01-05+40-02-06+40-90-90+40-04-12+40-04-11+40-04-14+40-04-13+4,,,2010-01-14,031-722-0404,경기도 성남시청,2025-12-19,3780000,경기도 성남시
수환경,제주특별자치도 서귀포시 안덕면 산방로3 88번길 8-10,,33.23262997,126.294942,폐기물수집및운반업,,51-03-01+51-03-06+51-20-99+51-99-00,,,2023-01-25,,제주특별자치도 서귀포시청,2025-12-10,6520000,제주특별자치도 서귀포시
세미영농조합법인,제주특별자치도 서귀포시 대정읍 대한로 389-33,,33.26120206,126.2421925,폐기물종합재활용업,,51-01-00+51-01-03+51-01-04+51-17-00,,,2013-01-08,,제주특별자치도 서귀포시청,2025-12-10,6520000,제주특별자치도 서귀포시
성진환경,제주특별자치도 서귀포시 토평공단로 139번길 22,,33.29299353,126.5802791,폐기물중간재활용업,,51-03-01+51-03-07+91-18-01,,,2013-06-04,,제주특별자치도 서귀포시청,2025-12-10,6520000,제주특별자치도 서귀포시
성진프라스틱,제주특별자치도 서귀포시 토평공단로 106번길 2,,33.29163763,126.584931,폐기물중간재활용업,,51-03-01+51-03-02+51-03-03+51-03-04+51-03-05+51-03-06+51-03-07+51-03-08+51-03-99,,,2016-02-19,,제주특별자치도 서귀포시청,2025-12-10,6520000,제주특별자치도 서귀포시
성진산업㈜,제주특별자치도 서귀포시 남원읍 위미항구로 502,,33.31765557,126.6454191,폐기물중간재활용업,,51-03-01+51-03-03+51-20-00,,,2017-12-27,,제주특별자치도 서귀포시청,2025-12-10,6520000,제주특별자치도 서귀포시
성진산업㈜,제주특별자치도 서귀포시 남원읍 위미항구로 502,,33.31765557,126.6454191,폐기물수집및운반업,,51-22-01+52-23-00+51-24-00+51-25-00+51-26-00+40-02-06+40-02-07+40-02-08+51-28-03+51-02-05+40-03-11+5,,,2014-12-17,,제주특별자치도 서귀포시청,2025-12-10,6520000,제주특별자치도 서귀포시
성지산업개발 주식회사,제주특별자치도 서귀포시 대정읍 대한로 383-51,,33.2585421488,126.2404065822,폐기물중간재활용업,,51-03-01+51-03-03+51-20-00,,,2025-04-09,,제주특별자치도 서귀포시청,2025-12-10,6520000,제주특별자치도 서귀포시
성지산업개발 주식회사,제주특별자치도 서귀포시 대정읍 대한로 383-53,,33.25890712,126.2405545,폐기물수집및운반업,,51-01-00+51-21-00+51-02-01+51-02-02+51-02-03+51-02-05+51-02-06+51-02-07+51-02-08+51-02-09+51-02-19+5,,,2024-11-13,,제주특별자치도 서귀포시청,2025-12-10,6520000,제주특별자치도 서귀포시
성지산업개발 주식회사,제주특별자치도 서귀포시 대정읍 대한로 383-51,,33.2585421488,126.2404065822,폐기물수집및운반업,,51-03-00+51-11-00+51-12-00+51-13-00+51-14-00+51-15-00+51-20-00+51-22-00+51-23-00+51-24-00+51-25-00+5,,,2024-11-25,,제주특별자치도 서귀포시청,2025-12-10,6520000,제주특별자치도 서귀포시
성심자원,제주특별자치도 서귀포시 도순남로 141-2,,33.24279878,126.4760743,폐기물수집및운반업,,51-14-00+51-15-00+51-18-01+51-18-02+51-20-01+51-20-02+51-20-03+51-20-04+51-20-06+51-20-07+51-20-13+5,,,2021-10-12,,제주특별자치도 서귀포시청,2025-12-10,6520000,제주특별자치도 서귀포시
성산환경 주식회사,"제주특별자치도 서귀포시 중산간동로 8044-5, 1층 102호",,33.264708532,126.557237,폐기물수집및운반업,,51-03-01+51-03-02+51-03-99+51-15-01+51-16-00+51-17-00+51-20-11+51-29-01+51-29-03+51-30-02+51-38-01+5,,,2016-10-21,,제주특별자치도 서귀포시청,2025-12-10,6520000,제주특별자치도 서귀포시
성산환경 주식회사,"제주특별자치도 서귀포시 중산간동로 8044-5, 1층 102호",,33.264708532,126.557237,폐기물수집및운반업,,91-02-00+91-99-00,,,2016-10-21,,제주특별자치도 서귀포시청,2025-12-10,6520000,제주특별자치도 서귀포시
서진환경산업,제주특별자치도 서귀포시 중산간동로 8159,,33.262879,126.5451005,폐기물수집및운반업,,51-07-01+51-07-02+51-11-01+51-11-02+51-11-03+51-12-01+51-12-02+51-13-01+51-13-03+51-13-99+51-14-01+5,,,2015-01-27,,제주특별자치도 서귀포시청,2025-12-10,6520000,제주특별자치도 서귀포시
서진환경산업,"제주특별자치도 서귀포시 서호호근로 168-1, 202동 404호",,33.26237452,126.5238807,폐기물수집및운반업,,91-00-00,,,2014-06-23,,제주특별자치도 서귀포시청,2025-12-10,6520000,제주특별자치도 서귀포시
서부환경개발공사,제주특별자치도 서귀포시 대정읍 영서중로 36-8,,33.221001,126.2577801,폐기물수집및운반업,,51-03-01+51-03-02+51-03-07+51-03-99+51-13-99+51-17-01+51-16-00+51-20-01+51-30-02+51-38-01+51-38-02+5,,,2016-10-26,,제주특별자치도 서귀포시청,2025-12-10,6520000,제주특별자치도 서귀포시
서부환경개발공사,제주특별자치도 서귀포시 대정읍 영서중로 36-8,,33.221001,126.2577801,폐기물수집및운반업,,91-00-00,,,2013-01-22,,제주특별자치도 서귀포시청,2025-12-10,6520000,제주특별자치도 서귀포시
서귀포산업 주식회사,제주특별자치도 서귀포시 산록남로 1241번길 168,,33.30854591,126.4205082,폐기물중간재활용업,,51-20-01+51-20-10+51-20-99,,,2013-01-24,,제주특별자치도 서귀포시청,2025-12-10,6520000,제주특별자치도 서귀포시
서귀용역,제주특별자치도 서귀포시 일주서로135번길 4,,33.249619,126.4926329,폐기물수집및운반업,,51-00-00,,,2006-04-27,,제주특별자치도 서귀포시청,2025-12-10,6520000,제주특별자치도 서귀포시
서귀용역,제주특별자치도 서귀포시 일주서로135번길 4,,33.249619,126.4926329,폐기물수집및운반업,,91-00-00,,,2016-07-07,,제주특별자치도 서귀포시청,2025-12-10,6520000,제주특별자치도 서귀포시
부산수지,제주특별자치도 서귀포시 인정오름로 86번길 27,,33.28932331,126.5775986,폐기물중간재활용업,,51-03-01,,,2013-07-01,,제주특별자치도 서귀포시청,2025-12-10,6520000,제주특별자치도 서귀포시
미르산업개발,제주특별자치도 서귀포시 안덕면 대평감산로 22-4,,33.236538,126.366941,폐기물수집및운반업,,51-22-01+52-23-00+51-24-00+51-25-00+51-26-00+40-02-06+40-02-07+40-02-08+51-28-03+40-04-10+51-32-00+5,,,2017-01-12,,제주특별자치도 서귀포시청,2025-12-10,6520000,제주특별자치도 서귀포시
동부환경 주식회사,제주특별자치도 서귀포시 표선면 가시로 407-6,,33.34617023,126.7846584,폐기물수집및운반업,,51-03-01+51-03-02+51-03-03+51-20-06+51-20-10+51-28-01+51-28-02+51-29-01+51-29-02+51-29-03+51-29-04+5,,,2023-02-23,,제주특별자치도 서귀포시청,2025-12-10,6520000,제주특별자치도 서귀포시
동부환경㈜,제주특별자치도 서귀포시 표선면 중산간동로 4850-85,제주특별자치도 서귀포시 표선면 가시리 1526,33.38026185,126.7801573,폐기물수집및운반업,,51-22-01+52-23-00+51-24-00+51-25-00+51-26-00+40-02-06+40-02-07+40-02-08+51-28-03+40-03-11+51-30-01+4,,,2017-04-05,,제주특별자치도 서귀포시청,2025-12-10,6520000,제주특별자치도 서귀포시
동남산업㈜,제주특별자치도 서귀포시 토평공단로106번길 18 (토평동),,33.2932165,126.584189,폐기물수집및운반업,,51-22-01+52-23-00+51-24-00+51-25-00+51-26-00+40-02-06+40-02-07+40-02-08+51-28-03+51-02-05+40-03-11+5,,,2013-12-23,,제주특별자치도 서귀포시청,2025-12-10,6520000,제주특별자치도 서귀포시
동남산업㈜,제주특별자치도 서귀포시 토평공단로 106번길 18,,33.2932165,126.584189,폐기물중간재활용업,,51-03-00+51-20-00+51-99-00,,,2012-05-10,,제주특별자치도 서귀포시청,2025-12-10,6520000,제주특별자치도 서귀포시
동남산업㈜,제주특별자치도 서귀포시 대정읍 암반수마농로 60-1,,33.23450544,126.2429979,폐기물중간처분업,,51-22-01+52-23-00+51-24-00+51-25-00+51-26-00+40-04-10+51-21-02+51-33-00+51-32-00+40-04-14,,,2012-02-23,,제주특별자치도 서귀포시청,2025-12-10,6520000,제주특별자치도 서귀포시
㈜신한기업,제주특별자치도 서귀포시 일주서로176번길 9 (강정동),,33.25170811,126.488559,폐기물수집및운반업,,51-22-01+52-23-00+51-24-00+51-25-00+51-26-00+40-02-06+40-02-07+40-02-08+51-28-03+51-02-05+40-03-11+5,,,2015-04-13,,제주특별자치도 서귀포시청,2025-12-10,6520000,제주특별자치도 서귀포시
주식회사 환경제주,제주특별자치도 서귀포시 중산간서로 361-32,,33.2569777,126.4733324,폐기물수집및운반업,,51-00-00,,,2016-07-27,,제주특별자치도 서귀포시청,2025-12-10,6520000,제주특별자치도 서귀포시
주식회사 환경제주,제주특별자치도 서귀포시 중산간서로 361-32,,33.2569777,126.4733324,폐기물수집및운반업,,91-00-00,,,2006-04-10,,제주특별자치도 서귀포시청,2025-12-10,6520000,제주특별자치도 서귀포시
주식회사 한라진산업개발,제주특별자치도 서귀포시 516로436번길 28,,33.2879207242,126.5949177901,폐기물수집및운반업,,51-22-01+52-23-00+51-24-00+51-25-00+51-26-00+40-02-06+40-02-07+40-02-08+51-28-03+51-02-05+40-03-11+5,,,2016-12-21,,제주특별자치도 서귀포시청,2025-12-10,6520000,제주특별자치도 서귀포시
주식회사 한라자원 농업회사법인,제주특별자치도 서귀포시 남원읍 위미항구로 395-31,,33.30913838,126.6440978,폐기물종합재활용업,,51-01-04,,,2013-09-09,,제주특별자치도 서귀포시청,2025-12-10,6520000,제주특별자치도 서귀포시
주식회사 칠십리환경산업,제주특별자치도 서귀포시 토평공단로 106,,33.29217168,126.5850523,폐기물종합재활용업,,51-40-01+91-19-00,,,2023-01-03,,제주특별자치도 서귀포시청,2025-12-10,6520000,제주특별자치도 서귀포시
주식회사 칠십리환경산업,제주특별자치도 서귀포시 토평공단로 106,,33.29217168,126.5850523,폐기물수집및운반업,,51-03-01+51-03-02+51-03-05+51-03-06+51-03-08+51-05-03+51-05-99+51-07-01+51-11-01+51-11-03+51-15-01+5,,,2022-09-21,,제주특별자치도 서귀포시청,2025-12-10,6520000,제주특별자치도 서귀포시
주식회사 제주포트,"제주특별자치도 서귀포시 강정통물로 1, 2층",,33.22854736,126.474979,폐기물수집및운반업,,51-03-01+51-03-03+51-03-05+51-03-06+51-03-07+51-03-99+51-20-21+51-20-22+51-20-23+51-20-24+51-20-25+5,,,2024-12-20,,제주특별자치도 서귀포시청,2025-12-10,6520000,제주특별자치도 서귀포시
주식회사 이웰에너지,제주특별자치도 서귀포시 토평공단로115번길 36,,33.2907665671,126.5805332517,폐기물수집및운반업,,51-03-01+51-03-02+51-08-02+51-08-04+51-20-21+51-20-22+51-20-23+51-20-24+51-20-25+51-20-26+51-20-99+5,,,2023-12-13,,제주특별자치도 서귀포시청,2025-12-10,6520000,제주특별자치도 서귀포시
주식회사 미래로지스틱,제주특별자치도 서귀포시 516로 202,,33.27109143,126.5856909,폐기물수집및운반업,,51-03-01+51-03-02+51-03-05+51-03-06+51-03-08+51-05-03+51-05-99+51-07-01+51-11-03+51-12-02+51-15-00+5,,,2020-04-06,,제주특별자치도 서귀포시청,2025-12-10,6520000,제주특별자치도 서귀포시
주식회사 대신환경,제주특별자치도 서귀포시 중정로 12-4,,33.247353,126.5575624,폐기물수집및운반업,,51-22-01+52-23-00+51-24-00+51-25-00+51-26-00+40-02-06+40-02-07+40-02-08+51-28-03+51-02-05+40-03-11+5,,,2012-01-11,,제주특별자치도 서귀포시청,2025-12-10,6520000,제주특별자치도 서귀포시
주식회사 대신환경,제주특별자치도 서귀포시 중정로 12-4,,33.247353,126.5575624,폐기물수집및운반업,,51-03-01+51-03-02+51-03-04+51-03-05+51-03-06+51-03-08+51-07-01+51-11-03+51-12-01+51-13-01+51-13-99+5,,,2013-05-09,,제주특별자치도 서귀포시청,2025-12-10,6520000,제주특별자치도 서귀포시
주식회사 금영로직스,제주특별자치도 서귀포시 법환로 102,,33.24140239,126.5071905,폐기물수집및운반업,,51-03-01+51-99-00,,,2019-08-12,,제주특별자치도 서귀포시청,2025-12-10,6520000,제주특별자치도 서귀포시
㈜스톤빌리지,제주특별자치도 서귀포시 표선면 가시로198번길 150-24,,33.34951046,126.8121999,폐기물종합재활용업,,51-02-00,,,2013-04-11,,제주특별자치도 서귀포시청,2025-12-10,6520000,제주특별자치도 서귀포시
㈜성지건설,제주특별자치도 서귀포시 중산간동로 8261,,33.261529,126.5342371,폐기물수집및운반업,,51-02-04,,,2024-05-22,,제주특별자치도 서귀포시청,2025-12-10,6520000,제주특별자치도 서귀포시
㈜백두환경자원(대정),제주특별자치도 서귀포시 대정읍 암반수마농로 60-1,,33.23450544,126.2429979,폐기물수집및운반업,,51-22-01+52-23-00+51-24-00+51-25-00+51-26-00+40-02-06+40-02-07+40-02-08+51-28-03+40-03-11+51-30-01+4,,,2021-05-21,,제주특별자치도 서귀포시청,2025-12-10,6520000,제주특별자치도 서귀포시
㈜대성환경자원,제주특별자치도 서귀포시 토평공단로 115번길 48,,33.290433,126.5803783,폐기물수집및운반업,,51-30-02,,,2021-09-28,,제주특별자치도 서귀포시청,2025-12-10,6520000,제주특별자치도 서귀포시
제일미니중기,제주특별자치도 서귀포시 중산간동로 7884,,33.26583477,126.573855,폐기물수집및운반업,,51-22-01+52-23-00+51-24-00+51-25-00+51-26-00+40-02-06+40-02-07+40-02-08+51-28-03+40-03-11+51-30-01+5,,,2016-09-06,,제주특별자치도 서귀포시청,2025-12-10,6520000,제주특별자치도 서귀포시
일출환경,제주특별자치도 서귀포시 성산읍 금백조로 68,,33.43977483,126.8658004,폐기물수집및운반업,,91-01-00+91-02-00+91-04-00+91-05-00+91-06-01+51-03-02+91-07-00+91-08-00+51-20-06+51-20-07+51-20-08,,,2025-01-24,,제주특별자치도 서귀포시청,2025-12-10,6520000,제주특별자치도 서귀포시
일승산업㈜,제주특별자치도 서귀포시 성산읍 중산간동로 4364-64,,33.39140232,126.823953,폐기물중간재활용업,,51-03-01+51-20-01+51-20-09+51-20-10+51-20-11+51-20-12+51-20-99+51-99-00,,,2012-07-12,,제주특별자치도 서귀포시청,2025-12-10,6520000,제주특별자치도 서귀포시
일승산업㈜,제주특별자치도 서귀포시 성산읍 중산간동로 4364-64,,33.39140232,126.823953,폐기물수집및운반업,,51-22-01+52-23-00+51-24-00+51-25-00+51-26-00+40-02-06+40-02-07+40-02-08+51-28-03+40-03-11+51-30-01+4,,,2016-06-22,,제주특별자치도 서귀포시청,2025-12-10,6520000,제주특별자치도 서귀포시
일성개발,제주특별자치도 서귀포시 서홍로 49,,33.252483,126.553439,폐기물수집및운반업,,51-22-01+52-23-00+51-24-00+51-25-00+51-26-00+40-02-06+40-02-07+40-02-08+51-28-03+40-03-11+51-30-01+4,,,2013-09-09,,제주특별자치도 서귀포시청,2025-12-10,6520000,제주특별자치도 서귀포시
이도에코표선 주식회사,제주특별자치도 서귀포시 표선면 세성로 650,,33.35852043,126.798656,폐기물수집및운반업,,51-22-01+52-23-00+51-24-00+51-25-00+51-26-00+40-02-06+40-02-07+40-02-08+51-28-03+40-03-11+51-30-01+4,,,2020-08-05,,제주특별자치도 서귀포시청,2025-12-10,6520000,제주특별자치도 서귀포시
이도에코표선 주식회사,제주특별자치도 서귀포시 표선면 세성로 650,,33.35852043,126.798656,폐기물중간재활용업,,51-03-01+51-20-01+51-20-10,,,2021-01-04,,제주특별자치도 서귀포시청,2025-12-10,6520000,제주특별자치도 서귀포시
예래개발,제주특별자치도 서귀포시 중문로 28,,33.254033,126.424461,폐기물수집및운반업,,51-22-01+52-23-00+51-24-00+51-25-00+51-26-00+40-02-06+40-02-07+40-02-08+51-28-03+40-03-11+51-30-01+4,,,2012-07-02,,제주특별자치도 서귀포시청,2025-12-10,6520000,제주특별자치도 서귀포시
청정환경,제주특별자치도 서귀포시 안덕면 화순서서로 7번길 4,,33.251696,126.329898,폐기물수집및운반업,,51-03-01+51-03-02+51-17-29+51-38-01+51-99-00,,,2017-05-16,,제주특별자치도 서귀포시청,2025-12-10,6520000,제주특별자치도 서귀포시
청정환경,제주특별자치도 서귀포시 안덕면 화순서서로 7번길 4,,33.251696,126.329898,폐기물수집및운반업,,91-00-00,,,2016-07-20,,제주특별자치도 서귀포시청,2025-12-10,6520000,제주특별자치도 서귀포시
창성환경,제주특별자치도 서귀포시 대정읍 서림중앙로 195,,33.25609969,126.2333535,폐기물수집및운반업,,51-03-01+51-03-02+51-03-08+51-03-99+51-15-01+51-15-02+51-20-21+51-20-27+51-20-99+51-28-02+51-29-01+5,,,2025-07-25,,제주특별자치도 서귀포시청,2025-12-10,6520000,제주특별자치도 서귀포시
중문제일인력개발,제주특별자치도 서귀포시 중산간동로 7884,,33.26583477,126.573855,폐기물수집및운반업,,51-22-01+52-23-00+51-24-00+51-25-00+51-26-00+40-02-06+40-02-07+40-02-08+51-28-03+40-03-11+51-30-01+5,,,2017-01-18,,제주특별자치도 서귀포시청,2025-12-10,6520000,제주특별자치도 서귀포시
중문산업개발,제주특별자치도 서귀포시 대포중앙로 21,,33.24870342,126.4340905,폐기물수집및운반업,,51-22-01+52-23-00+51-24-00+51-25-00+51-26-00+40-02-06+40-02-07+40-02-08+51-28-03+51-02-05+40-03-11+5,,,2012-02-21,,제주특별자치도 서귀포시청,2025-12-10,6520000,제주특별자치도 서귀포시
㈜환경제주,제주특별자치도 서귀포시 중산간서로 361-32,,33.2569777015,126.473332416,폐기물중간재활용업,,51-03-01+51-03-06+51-28-01+51-28-02+51-29-03+51-30-02,,,2021-06-29,,제주특별자치도 서귀포시청,2025-12-10,6520000,제주특별자치도 서귀포시
㈜화송산업,제주특별자치도 서귀포시 대정읍 일주서로3000번길 155-13,,33.25830869,126.2291057,폐기물종합재활용업,,51-16-00+51-17-01+51-17-02,,,2012-01-31,,제주특별자치도 서귀포시청,2025-12-10,6520000,제주특별자치도 서귀포시
㈜칠십리환경산업,제주특별자치도 서귀포시 토평공단로 106,,33.29217168,126.5850523,폐기물중간재활용업,,51-03-01+51-03-02+51-03-03+51-03-04+51-03-05+51-03-06+51-03-07+51-03-08+51-03-99+51-20-00+51-99-00,,,2012-09-25,,제주특별자치도 서귀포시청,2025-12-10,6520000,제주특별자치도 서귀포시
㈜칠십리환경산업,제주특별자치도 서귀포시 토평공단로 106,,33.29217168,126.5850523,폐기물수집및운반업,,51-00-00,,,2007-07-16,,제주특별자치도 서귀포시청,2025-12-10,6520000,제주특별자치도 서귀포시
㈜칠십리환경산업,제주특별자치도 서귀포시 토평공단로 106 (토평동),,33.29217168,126.5850523,폐기물수집및운반업,,51-22-01+52-23-00+51-24-00+51-25-00+51-26-00+40-02-06+40-02-07+40-02-08+51-28-03+51-02-05+40-03-11+5,,,2006-12-21,,제주특별자치도 서귀포시청,2025-12-10,6520000,제주특별자치도 서귀포시
㈜제주환경이노베이션,제주특별자치도 서귀포시 대정읍 서림중앙로 195,,33.256068,126.233307,폐기물중간재활용업,,51-03-02+51-15-00,,,2012-04-15,,제주특별자치도 서귀포시청,2025-12-10,6520000,제주특별자치도 서귀포시
㈜제주페이퍼텍,제주특별자치도 서귀포시 대정읍 일주서로3000번길 137-19,,33.25824053,126.2271446,폐기물종합재활용업,,51-28-00+51-27-00+51-03-01+51-03-02+51-03-03+51-20-00,,,2011-11-25,,제주특별자치도 서귀포시청,2025-12-10,6520000,제주특별자치도 서귀포시
㈜이웰에너지,제주특별자치도 서귀포시 토평공단로127번길 33(토평동),,33.29130561,126.580454,폐기물종합재활용업,,51-20-00,,,2020-01-14,,제주특별자치도 서귀포시청,2025-12-10,6520000,제주특별자치도 서귀포시
한라환경산업㈜,제주특별자치도 서귀포시 인정오름로 86번길 63,,33.29240648,126.576083,폐기물수집및운반업,,40-02-06+40-02-07+40-02-08+51-28-03+51-22-01+52-23-00+51-24-00+51-25-00+51-26-00+51-21-02+51-02-05+4,,,2025-08-21,,제주특별자치도 서귀포시청,2025-12-10,6520000,제주특별자치도 서귀포시
한라환경산업㈜,제주특별자치도 서귀포시 인정오름로 86번길 63,,33.29240648,126.576083,폐기물중간재활용업,,51-03-01+51-03-05+51-03-06+51-20-01+51-20-02+51-20-03+51-20-06+51-20-10+51-30-01,,,2021-02-04,,제주특별자치도 서귀포시청,2025-12-10,6520000,제주특별자치도 서귀포시
한라이엔지㈜,제주특별자치도 서귀포시 토평공단로 113(토평동),,33.291917,126.5840079,폐기물중간재활용업,,51-03-01+51-03-03+51-03-04+51-03-05+51-03-06+51-03-07+51-03-99+51-20-00+51-20-99,,,2014-06-13,,제주특별자치도 서귀포시청,2025-12-10,6520000,제주특별자치도 서귀포시
탐라산업,제주특별자치도 서귀포시 토평공단로 115번길 29,,33.29075514,126.5814489,폐기물종합재활용업,,51-03-01+51-03-03+51-03-06+51-03-08+51-30-01,,,2025-07-29,,제주특별자치도 서귀포시청,2025-12-10,6520000,제주특별자치도 서귀포시
클린환경제주,제주특별자치도 서귀포시 호근로 119,,33.261018,126.5271847,폐기물수집및운반업,,51-03-01+51-03-02+51-03-99+51-13-99+51-15-01+51-15-02+51-17-29+51-20-99+51-99-00,,,2017-03-13,,제주특별자치도 서귀포시청,2025-12-10,6520000,제주특별자치도 서귀포시
클린환경제주,제주특별자치도 서귀포시 호근로 119,,33.261018,126.5271847,폐기물수집및운반업,,91-01-00+91-02-00+91-03-00+91-04-00+91-05-00+91-06-01+91-06-02+91-06-03+91-07-01+91-07-02+91-08-00+9,,,2017-08-17,,제주특별자치도 서귀포시청,2025-12-10,6520000,제주특별자치도 서귀포시
치워드림,제주특별자치도 서귀포시 당동산로 83번길 1,,33.26932408,126.542377,폐기물수집및운반업,,51-03-01+51-03-02+51-03-03+51-03-04+51-03-06+51-03-07+51-03-99+51-12-00+51-20-01+51-20-02+51-20-03+5,,,2020-05-19,,제주특별자치도 서귀포시청,2025-12-10,6520000,제주특별자치도 서귀포시
그린환경,"경기도 성남시 분당구 장미로 189, 매화마을근린상가 111호 (야탑동)",,37.413118,127.142079,폐기물수집및운반업,,40-01-01+40-01-02+40-01-03+40-01-04+40-01-05+40-02-06+40-90-90+40-04-12+40-04-11+40-04-10+40-04-14+4,,,2009-01-15,031-781-6767,경기도 성남시청,2025-12-19,3780000,경기도 성남시
엠함안㈜ 사하지점,부산광역시 사하구 보덕포1길 84(장림동),부산광역시 사하구 장림동 930,35.07277968,128.96148570,폐기물종합재활용업,기타,51-20-99,전국,파쇄시설 2기 등,2001-03-26,051-266-5866,부산광역시 사하구청,2025-12-16,3340000,부산광역시 사하구
㈜GMS21,부산광역시 사하구 보덕포1길 119(장림동),부산광역시 사하구 장림동 907-4,35.07199138,128.96299643,폐기물종합재활용업,기타,51-18-99,전국,정제시설 1기 등,2005-02-28,051-263-2327,부산광역시 사하구청,2025-12-16,3340000,부산광역시 사하구
㈜가남환경,부산광역시 사하구 다산로208번길 42(장림동),부산광역시 사하구 장림동 914-36,35.07184070,128.96012250,폐기물종합재활용업,기타,51-99-00,전국,파쇄시설 3기 등,2006-04-12,051-262-3511,부산광역시 사하구청,2025-12-16,3340000,부산광역시 사하구
㈜지원,부산광역시 사하구 다산로208번길 32(장림동),부산광역시 사하구 장림동 914-4,35.07145674,128.95851971,폐기물종합재활용업,기타,51-99-00,전국,분쇄시설 1대 등,2010-05-20,051-317-6076,부산광역시 사하구청,2025-12-16,3340000,부산광역시 사하구
㈜부영개발,부산광역시 사하구 다산로208번길 44(장림동),부산광역시 사하구 장림동 914-8,35.07228763,128.96065552,폐기물종합재활용업,기타,51-99-00,전국,선별시설 1대,2009-06-09,051-265-3640,부산광역시 사하구청,2025-12-16,3340000,부산광역시 사하구
동광재생산업㈜,부산광역시 사하구 하신중앙로53번길 14(신평동),부산광역시 사하구 신평동 370-62,35.08369304,128.96338811,폐기물종합재활용업,기타,51-99-00,전국,압축시설 1대,2016-07-06,051-266-4161,부산광역시 사하구청,2025-12-16,3340000,부산광역시 사하구
천세철강㈜,,부산광역시 사하구 구평동 38-103,35.08004022,128.99136241,폐기물중간재활용업,기타,51-04-99,전국,선별시설 1대,2011-06-21,051-832-2351,부산광역시 사하구청,2025-12-16,3340000,부산광역시 사하구
(사)에코언니야,부산광역시 사하구 을숙도대로 469(신평동),부산광역시 사하구 신평동 642-13,35.08718124,128.95624419,폐기물종합재활용업,기타,51-16-00,전국,여과시설 1식 등,2020-04-20,051-581-0906,부산광역시 사하구청,2025-12-16,3340000,부산광역시 사하구
원우수산,부산광역시 사하구 감천항로429번길 5(구평동),부산광역시 사하구 구평동 476-1,35.05505207,128.99576083,폐기물종합재활용업,기타,51-17-03,전국,분쇄시설 2식 등,2009-07-24,051-266-2083,부산광역시 사하구청,2025-12-16,3340000,부산광역시 사하구
㈜현대에프앤씨,부산광역시 사하구 장림로93번길 21(장림동),부산광역시 사하구 장림동 1082-1,35.08072209,128.95794376,폐기물종합재활용업,기타,51-17-03,전국,분쇄시설 2식 등,2009-03-16,051-264-2348,부산광역시 사하구청,2025-12-16,3340000,부산광역시 사하구
㈜벤처환경개발,부산광역시 사하구 감천항로405번길 80,부산광역시 사하구 구평동 489-3,35.05186172,128.99829262,폐기물종합재활용업,기타,51-99-00,전국,분쇄시설 2대 등,2005-03-18,051-319-1161,부산광역시 사하구청,2025-12-16,3340000,부산광역시 사하구
승진산업,부산광역시 사하구 하신중앙로17번길 19(장림동),부산광역시 사하구 장림동 990-1,35.08026164,128.96232677,폐기물종합재활용업,기타,51-99-00,전국,감용시설 2대 등,2003-08-02,051-262-8301,부산광역시 사하구청,2025-12-16,3340000,부산광역시 사하구
해강냉장,부산광역시 사하구 하신중앙로3번길 108(장림동),부산광역시 사하구 장림동 980-52,35.07712492,128.95783641,폐기물종합재활용업,기타,51-17-03,전국,분쇄시설 1대 등,2003-08-14,051-265-1471,부산광역시 사하구청,2025-12-16,3340000,부산광역시 사하구
㈜남양수지,부산광역시 사하구 보덕포1길 99-1(장림동),부산광역시 사하구 장림동 906-11,35.07248187,128.96310969,폐기물종합재활용업,기타,51-99-00,전국,용융시설 2대 등,2004-10-13,051-261-3026,부산광역시 사하구청,2025-12-16,3340000,부산광역시 사하구
㈜토성산업,부산광역시 사하구 감천항로 119(구평동),부산광역시 사하구 구평동 38-36,35.08107024,128.99125995,폐기물종합재활용업,기타,51-99-00,전국,파쇄시설 3대 등,2011-11-11,051-265-3801,부산광역시 사하구청,2025-12-16,3340000,부산광역시 사하구
백두환경,전라남도 영광군 영광읍 중앙로 295,전라남도 영광군 영광읍 무령리 85-1,35.28497311,126.5125266,폐기물수집및운반업,기타,40-01-01+40-01-02+40-01-03+40-01-04+40-01-05+40-02-06+40-02-07+40-02-08+40-02-09+40-03-10+40-03-11+4,전국,차량,2022-12-05,,전라남도 영광군청,2024-07-26,4970000,전라남도 영광군
성광이앤씨,전라남도 영광군 홍농읍 홍농로 665,전라남도 영광군 홍농읍 진덕리 702-2,35.41190607,126.4451185,폐기물수집및운반업,기타,40-01-01+40-01-02+40-01-03+40-01-04+40-01-05+40-02-06+40-02-07+40-02-08+40-02-09+40-03-10+40-03-11+4,전국,차량,2019-05-09,061-356-6101,전라남도 영광군청,2024-07-26,4970000,전라남도 영광군
㈜태산환경,,전라남도 영광군 군서면 만곡리 5-2,35.27994651,126.4808834,폐기물중간처분업,파쇄,40-01-01+40-01-02+40-01-03+40-01-04+40-01-05+40-04-13+40-02-06+40-03-11+40-03-12+40-04-10+40-04-11+4,전국,파쇄시설,2010-04-07,062-961-9619,전라남도 영광군청,2024-07-26,4970000,전라남도 영광군
㈜서해안산업환경,전라남도 영광군 군서면 군서로 381,전라남도 영광군 군서면 만곡리 4,35.27900928,126.4807075,폐기물중간처분업,파쇄,40-01-01+40-01-02+40-01-03+40-01-04+40-01-05+40-04-13+40-02-06+40-03-10+40-03-11+40-03-12+40-04-10+4,전국,파쇄시설,2006-03-28,061-353-0900,전라남도 영광군청,2024-07-26,4970000,전라남도 영광군
(유)중앙운수,전라남도 영광군 영광읍 영광로 1265,전라남도 영광군 영광읍 학정리 692-1,35.26127498,126.511266,폐기물수집및운반업,기타,40-01-01+40-01-02+40-01-03,전국,차량,2014-11-21,,전라남도 영광군청,2024-07-26,4970000,전라남도 영광군
오션클린텍,전라남도 영광군 영광읍 옥당로 229,전라남도 영광군 영광읍 단주리 364-1,35.28230588,126.4998931,폐기물수집및운반업,기타,51-00-00,전국,차량,2023-10-18,,전라남도 영광군청,2024-07-26,4970000,전라남도 영광군
우진영농조합법인,전라남도 영광군 법성면 굴비로4길 14,전라남도 영광군 법성면 법성리 1144-9,35.35498643,126.4481557,폐기물수집및운반업,기타,51-19-00,전국,차량,2021-05-26,,전라남도 영광군청,2024-07-26,4970000,전라남도 영광군
백수농업협동조합,전라남도 영광군 백수읍 백수로10길 3,전라남도 영광군 백수읍 천마리 603-1,35.28198267,126.4188405,폐기물수집및운반업,기타,51-19-00,전국,차량,2021-05-26,061-353-5971,전라남도 영광군청,2024-07-26,4970000,전라남도 영광군
태성,전라남도 영광군 영광읍 천년로9길 75-12,전라남도 영광군 영광읍 녹사리 147-1,35.26667478,126.5024426,폐기물수집및운반업,기타,51-17-26,전국,차량,2020-12-17,,전라남도 영광군청,2024-07-26,4970000,전라남도 영광군
㈜라인텍,전라남도 영광군 영광읍 물무로 106-4,전라남도 영광군 영광읍 백학리 21,35.27627886,126.5117423,폐기물수집및운반업,기타,51-02-04,전국,차량,2021-01-26,,전라남도 영광군청,2024-07-26,4970000,전라남도 영광군
㈜서해안산업환경,전라남도 영광군 군서면 군서로 381,전라남도 영광군 군서면 만곡리 4,35.27900928,126.4807075,폐기물수집및운반업,기타,51-00-00,전국,차량,2008-12-23,061-353-0900,전라남도 영광군청,2024-07-26,4970000,전라남도 영광군
대경환경산업㈜,전라남도 영광군 영광읍 단신길1길 93,전라남도 영광군 영광읍 신하리 638-2,35.28215804,126.488742,폐기물수집및운반업,기타,51-00-00,전국,차량,2008-06-13,061-351-2357,전라남도 영광군청,2024-07-26,4970000,전라남도 영광군
풍성농장,전라남도 영광군 염산면 칠산로 436-75,전라남도 영광군 염산면 봉남리 608,35.22800091,126.3424234,폐기물종합재활용업,기타,51-01-01+51-01-02+51-01-03+51-01-04+51-02-01,전국,지렁이 사육시설,2022-01-10,,전라남도 영광군청,2024-07-26,4970000,전라남도 영광군
㈜어스앤배터리,전라남도 영광군 대마면 전기차로 40,전라남도 영광군 대마면 송죽리 1043-1,35.27780235,126.5775112,폐기물종합재활용업,기타,51-41-02+51-41-03+51-41-05,전국,진단장비+방전장비,2021-11-01,061-803-2346,전라남도 영광군청,2024-07-26,4970000,전라남도 영광군
농업회사법인 지구산업 주식회사,전라남도 영광군 법성면 대덕길4길 62-63,전라남도 영광군 법성면 대덕리 24-1,35.35581321,126.4703981,폐기물종합재활용업,기타,51-01-02+51-01-03+51-01-04+51-01-08+51-02-99,전국,분변토생산시설+퇴비생산시설,2016-11-11,,전라남도 영광군청,2024-07-26,4970000,전라남도 영광군
㈜온누리,전라남도 영광군 영광읍 군서로 364-29,전라남도 영광군 영광읍 신하리 264-5,35.27642592,126.4847617,폐기물종합재활용업,파쇄,51-03-01+51-20-01+51-03-06+51-17-04+51-20-02,전국,분쇄시설+압출성형시설+탈수시설+압축시설+파쇄시설+분쇄시설+용융시설,2014-01-24,,전라남도 영광군청,2024-07-26,4970000,전라남도 영광군
유한회사 대성기업,전라남도 영광군 군서면 백수로16길 54-7,전라남도 영광군 군서면 만곡리 481-4,35.2892960744,126.4636715297,폐기물종합재활용업,파쇄,51-03-01+51-21-01,전국,분쇄시설+정제시설,1992-12-26,,전라남도 영광군청,2024-07-26,4970000,전라남도 영광군
㈜중앙환경산업,전라남도 영광군 대마면 영장로4길 50-24,전라남도 영광군 대마면 월산리 561-8,35.29529111,126.5771066,폐기물종합재활용업,기타,51-01-02+51-01-04,전국,지렁이분변토 생산시설,2013-05-09,070-4155-5056,전라남도 영광군청,2024-07-26,4970000,전라남도 영광군
명진산업,전라남도 영광군 군서면 백수로17길 25-3,전라남도 영광군 군서면 만곡리 808,35.28130359,126.4782298,폐기물최종재활용업,열분해,51-03-01,전국,열분해시설,2022-01-10,061-353-9003,전라남도 영광군청,2024-07-26,4970000,전라남도 영광군
주식회사 지평선에너지,전라남도 영광군 군서면 백수로17길 25-7,전라남도 영광군 군서면 만곡리 809,35.28130973,126.4786300030,폐기물최종재활용업,열분해,51-03-01+51-03-99+51-27-02,전국,열분해시설,2012-11-14,061-351-9001,전라남도 영광군청,2024-07-26,4970000,전라남도 영광군
주식회사 장춘기업,전라남도 영광군 영광읍 군서로 364-13,전라남도 영광군 영광읍 신하리 572-1,35.27707498,126.4832446,폐기물최종재활용업,기타,51-03-99,전국,탈피시설,2014-02-24,061-353-7574,전라남도 영광군청,2024-07-26,4970000,전라남도 영광군
칠산산업,전라남도 영광군 군서면 백수로17길 9-4,전라남도 영광군 군서면 만곡리 802,35.28209672,126.4783481,폐기물최종재활용업,열분해,51-03-01,전국,용융시설+성형시설+연료화시설,2013-07-29,061-353-9040,전라남도 영광군청,2024-07-26,4970000,전라남도 영광군
이레산업,전라남도 영광군 군서면 백수로17길 4,전라남도 영광군 군서면 만곡리 796,35.28286019,126.4775212,폐기물중간재활용업,파쇄,51-03-01,전국,파쇄시설+절단시설,2013-07-30,061-352-2173,전라남도 영광군청,2024-07-26,4970000,전라남도 영광군
명진산업,전라남도 영광군 군서면 백수로17길 25-3,전라남도 영광군 군서면 만곡리 808,35.28130359,126.4782298,폐기물중간재활용업,기타,51-03-01,전국,파쇄ㆍ분쇄시설+용융시설,2013-07-29,061-353-9003,전라남도 영광군청,2024-07-26,4970000,전라남도 영광군
㈜서해안산업환경,전라남도 영광군 군서면 군서로 381,전라남도 영광군 군서면 만곡리 4,35.27900928,126.4807075,폐기물중간재활용업,파쇄,51-03-01+51-20-01+51-20-02+51-20-03+51-20-06+51-20-10,전국,압축시설6+파쇄시설+파쇄ㆍ분쇄시설,2023-02-19,061-353-0900,전라남도 영광군청,2024-07-26,4970000,전라남도 영광군
삼환환경(주),경기도 수원시 권선구 효행로 61,경기도 수원시 권선구 오목천동 415-3,37.23848361,126.9612866,폐기물중간재활용업,,40-02-07+51-03-01,전국,폐기물채활용시설,2023-06-09,031-295-0034,경기도 수원시청,2024-08-23,3740000,경기도 수원시
대원농장,경기도 수원시 권선구 정조로 253-94,경기도 수원시 권선구 대황교동 261-4,37.23619666,127.0174779,폐기물종합재활용업,,51-38-01,전국,폐기물채활용시설,2024-02-01,031-235-4556,경기도 수원시청,2024-08-23,3740000,경기도 수원시
대명기업,경기도 수원시 권선구 매송고색로804번길 451,경기도 수원시 권선구 고색동 616,37.23449452,126.9886969,폐기물종합재활용업,,51-38-01+51-38-02+91-02-00,전국,폐기물채활용시설,2017-03-28,031-291-0720,경기도 수원시청,2024-08-23,3740000,경기도 수원시
한국자원환경㈜,경기도 수원시 권선구 정조로 253-104,경기도 수원시 권선구 대황교동 263-2,37.23611243,127.0173024,폐기물중간처분업,,51-03-01+51-12-00+51-27-00+51-29-01+91-04-00,전국,폐기물채활용시설,2006-12-05,031-224-0079,경기도 수원시청,2024-08-23,3740000,경기도 수원시
㈜아스테크,경기도 수원시 장안구 경수대로 1196-20,경기도 수원시 장안구 파장동 118-1,37.31729533,126.9905292,폐기물최종재활용업,,51-23-00,전국,폐기물채활용시설,2013-08-07,031-258-5723,경기도 수원시청,2024-08-23,3740000,경기도 수원시
삼환환경㈜,경기도 수원시 권선구 효행로 61,경기도 수원시 권선구 오목천동 923-48,37.23848361,126.9612866,폐기물중간처분업,,40-01-01+40-01-02+40-01-03+40-01-04+40-01-05+40-02-06+40-02-07+40-02-08+40-02-09+40-03-10+40-03-11+4,전국,폐기물처리시설,1998-07-01,031-292-8644,경기도 수원시청,2024-08-23,3740000,경기도 수원시
백상기업㈜,경기도 수원시 권선구 서수원로63번길 139,경기도 수원시 권선구 오목천동 885,37.23177664,126.9709396,폐기물중간처분업,,40-01-01+40-01-02+40-01-03+40-01-04+40-01-05+40-02-06+40-02-07+40-02-08+40-02-09+40-03-10+40-03-11+4,전국,폐기물처리시설,1998-07-01,031-292-4450,경기도 수원시청,2024-08-23,3740000,경기도 수원시
고려개발㈜,경기도 수원시 권선구 매송고색로 848,경기도 수원시 권선구 평동 53,37.25629262,126.9959876,폐기물중간처분업,,40-01-01+40-01-02+40-01-03+40-01-04+40-01-05+40-02-06+40-02-07+40-02-08+40-02-09+40-03-10+40-03-11+4,전국,폐기물처리시설,1998-04-17,031-292-4500,경기도 수원시청,2024-08-23,3740000,경기도 수원시
예안환경,경기도 수원시 팔달구 경수대로704번길 24-22,경기도 수원시 팔달구 우만동 474-16,37.28765818,127.0281642,폐기물수집및운반업,,40-01-01+40-01-02+40-01-03+40-01-04+40-01-05+40-02-06+40-02-07+40-02-08+40-02-09+40-03-10+40-03-11+4,전국,수집운반차량,2019-04-17,,경기도 수원시청,2024-08-23,3740000,경기도 수원시
주화건설㈜,"경기도 수원시 권선구 탑동로36번길 18, 201호(탑동)",경기도 수원시 권선구 탑동 795-1,37.27222381,126.9754354,폐기물수집및운반업,,40-01-01+40-01-02+40-01-03+40-01-04+40-01-05+40-02-06+40-02-07+40-02-08+40-02-09+40-03-10+40-03-11+4,전국,수집운반차량,2019-01-30,,경기도 수원시청,2024-08-23,3740000,경기도 수원시
고강㈜,경기도 수원시 권선구 세권로166번길 9-19,경기도 수원시 권선구 권선동 1061-13,37.25550981,127.0233341,폐기물수집및운반업,,40-01-01+40-01-02+40-01-03+40-01-04+40-01-05+40-02-06+40-02-07+40-02-08+40-02-09+40-03-10+40-03-11+4,전국,수집운반차량,2018-07-20,031-223-5028,경기도 수원시청,2024-08-23,3740000,경기도 수원시
티피기업㈜,경기도 수원시 팔달구 효원로307번길 97,경기도 수원시 팔달구 인계동 1116-3,37.26513063,127.0367453,폐기물수집및운반업,,40-01-01+40-01-02+40-01-03+40-01-04+40-01-05+40-02-06+40-02-07+40-02-08+40-02-09+40-03-10+40-03-11+4,전국,수집운반차량,2018-02-21,031-217-5333,경기도 수원시청,2024-08-23,3740000,경기도 수원시
㈜광교건설,경기도 수원시 팔달구 수성로 92,경기도 수원시 팔달구 화서동 436-3,37.28183425,126.9887752,폐기물수집및운반업,,40-01-01+40-01-02+40-01-03+40-01-04+40-01-05+40-02-06+40-02-07+40-02-08+40-02-09+40-03-10+40-03-11+4,전국,수집운반차량,2018-01-29,031-296-7758,경기도 수원시청,2024-08-23,3740000,경기도 수원시
티와이개발㈜,경기도 수원시 팔달구 정조로 651,경기도 수원시 팔달구 매교동 161,37.26666941,127.0156538,폐기물수집및운반업,,40-01-01+40-01-02+40-01-03+40-01-04+40-01-05+40-02-06+40-02-07+40-02-08+40-02-09+40-03-10+40-03-11+4,전국,수집운반차량,2017-12-27,031-267-1612,경기도 수원시청,2024-08-23,3740000,경기도 수원시
㈜대보산업,경기도 수원시 영통구 반달로35번길 30,경기도 수원시 영통구 영통동 1012-1,37.25178087,127.0774604,폐기물수집및운반업,,40-01-01+40-01-02+40-01-03+40-01-04+40-01-05+40-02-06+40-02-07+40-02-08+40-02-09+40-03-10+40-03-11+4,전국,수집운반차량,2017-04-24,070-7786-4840,경기도 수원시청,2024-08-23,3740000,경기도 수원시
좋은사람들,"경기도 수원시 권선구 세권로138번길 31, 101호 (세류동)",경기도 수원시 권선구 세류동 1083-18,37.25549423,127.0187314,폐기물수집및운반업,,40-01-01+40-01-02+40-01-03+40-01-04+40-01-05+40-02-06+40-02-07+40-02-08+40-02-09+40-03-10+40-03-11+4,전국,수집운반차량,2017-03-13,031-222-9986,경기도 수원시청,2024-08-23,3740000,경기도 수원시
㈜세영건설,경기도 수원시 팔달구 수성로 92,경기도 수원시 팔달구 화서동 436-3,37.28183425,126.9887752,폐기물수집및운반업,,40-01-01+40-01-02+40-01-03+40-01-04+40-01-05+40-02-06+40-02-07+40-02-08+40-02-09+40-03-10+40-03-11+4,전국,수집운반차량,2016-11-08,031-225-8015,경기도 수원시청,2024-08-23,3740000,경기도 수원시
㈜건동,경기도 수원시 권선구 곡반정로19번길 54-3,경기도 수원시 권선구 곡반정동 599-10,37.23397223,127.0254709,폐기물수집및운반업,,40-01-01+40-01-02+40-01-03+40-01-04+40-01-05+40-02-06+40-02-07+40-02-08+40-02-09+40-03-10+40-03-11+4,전국,수집운반차량,2016-11-08,031-297-9763,경기도 수원시청,2024-08-23,3740000,경기도 수원시
나인비전㈜,경기도 수원시 권선구 권선로 308-18,경기도 수원시 권선구 고색동 986,37.25407432,126.9853765,폐기물수집및운반업,,40-01-01+40-01-02+40-01-03+40-01-04+40-01-05+40-02-06+40-02-07+40-02-08+40-02-09+40-03-10+40-03-11+4,전국,수집운반차량,2016-08-25,031-305-5882,경기도 수원시청,2024-08-23,3740000,경기도 수원시
다우개발㈜,경기도 수원시 팔달구 덕영대로697번길 21-7,경기도 수원시 팔달구 화서동 644-4,37.28519558,126.9909457,폐기물수집및운반업,,40-01-01+40-01-02+40-01-03+40-01-04+40-01-05+40-02-06+40-02-07+40-02-08+40-02-09+40-03-10+40-03-11+4,전국,수집운반차량,2016-05-18,031-357-1484,경기도 수원시청,2024-08-23,3740000,경기도 수원시
(주)용호산업,경기도 수원시 권선구 효탑로16번길 49,경기도 수원시 권선구 탑동 876-5,37.26737442,126.9773064,폐기물수집및운반업,,40-01-01+40-01-02+40-01-03+40-01-04+40-01-05+40-02-06+40-02-07+40-02-08+40-02-09+40-03-10+40-03-11+4,전국,수집운반차량,2016-03-04,031-252-2090,경기도 수원시청,2024-08-23,3740000,경기도 수원시
㈜비에스 씨엔씨,경기도 수원시 권선구 권선로 308-18,경기도 수원시 권선구 고색동 986,37.25407432,126.9853765,폐기물수집및운반업,,40-01-01+40-01-02+40-01-03+40-01-04+40-01-05+40-02-06+40-02-07+40-02-08+40-02-09+40-03-10+40-03-11+4,전국,수집운반차량,2015-12-18,031-296-8900,경기도 수원시청,2024-08-23,3740000,경기도 수원시
지준산업㈜,경기도 수원시 권선구 권선로 308-18,경기도 수원시 권선구 고색동 986,37.25407432,126.9853765,폐기물수집및운반업,,40-01-01+40-01-02+40-01-03+40-01-04+40-01-05+40-02-06+40-02-07+40-02-08+40-02-09+40-03-10+40-03-11+4,전국,수집운반차량,2015-10-14,031-8025-4527,경기도 수원시청,2024-08-23,3740000,경기도 수원시
㈜수성환경,경기도 수원시 권선구 호매실로 22-75,경기도 수원시 권선구 탑동 615-4,37.25969409,126.9702627,폐기물수집및운반업,,40-01-01+40-01-02+40-01-03+40-01-04+40-01-05+40-02-06+40-02-07+40-02-08+40-02-09+40-03-10+40-03-11+4,전국,수집운반차량,2015-07-10,031-291-6341,경기도 수원시청,2024-08-23,3740000,경기도 수원시
㈜지민,경기도 수원시 팔달구 경수대로656번길 37-22,경기도 수원시 팔달구 우만동 505-12,37.28563289,127.0297432,폐기물수집및운반업,,40-01-01+40-01-02+40-01-03+40-01-04+40-01-05+40-02-06+40-02-07+40-02-08+40-02-09+40-03-10+40-03-11+4,전국,수집운반차량,2014-10-15,031-254-0454,경기도 수원시청,2024-08-23,3740000,경기도 수원시
㈜수도환경,경기도 수원시 장안구 수성로 338,경기도 수원시 장안구 영화동 449-2,37.29239163,127.0090479,폐기물수집및운반업,,40-01-01+40-01-02+40-01-03+40-01-04+40-01-05+40-02-06+40-02-07+40-02-08+40-02-09+40-03-10+40-03-11+4,전국,수집운반차량,2014-08-19,031-248-2557,경기도 수원시청,2024-08-23,3740000,경기도 수원시
㈜현대환경개발,경기도 수원시 팔달구 경수대로704번길 24-22,경기도 수원시 팔달구 우만동 474-16,37.28765818,127.0281642,폐기물수집및운반업,,40-01-01+40-01-02+40-01-03+40-01-04+40-01-05+40-02-06+40-02-07+40-02-08+40-02-09+40-03-10+40-03-11+4,전국,수집운반차량,2014-02-18,031-214-6667,경기도 수원시청,2024-08-23,3740000,경기도 수원시
㈜청명산업,경기도 수원시 권선구 곡반정로 53,경기도 수원시 권선구 곡반정동 596-9,37.23383208,127.0276641,폐기물수집및운반업,,40-01-01+40-01-02+40-01-03+40-01-04+40-01-05+40-02-06+40-02-07+40-02-08+40-02-09+40-03-10+40-03-11+4,전국,수집운반차량,2012-08-17,031-205-3944,경기도 수원시청,2024-08-23,3740000,경기도 수원시
용문산업㈜,경기도 수원시 영통구 반달로7번길 30,경기도 수원시 영통구 영통동 998-2,37.25319221,127.0748967,폐기물수집및운반업,,40-01-01+40-01-02+40-01-03+40-01-04+40-01-05+40-02-06+40-02-07+40-02-08+40-02-09+40-03-10+40-03-11+4,전국,수집운반차량,2011-06-21,031-258-8780,경기도 수원시청,2024-08-23,3740000,경기도 수원시
태양환경개발㈜,경기도 수원시 권선구 세화로 33,경기도 수원시 권선구 세류동 363-5,37.25793445,127.0024183,폐기물수집및운반업,,40-01-01+40-01-02+40-01-03+40-01-04+40-01-05+40-02-06+40-02-07+40-02-08+40-02-09+40-03-10+40-03-11+4,전국,수집운반차량,2010-10-27,031-226-0103,경기도 수원시청,2024-08-23,3740000,경기도 수원시
대호개발㈜,경기도 수원시 권선구 권선로 308-18,경기도 수원시 권선구 고색동 986,37.25407432,126.9853765,폐기물수집및운반업,,40-01-01+40-01-02+40-01-03+40-01-04+40-01-05+40-02-06+40-02-07+40-02-08+40-02-09+40-03-10+40-03-11+4,전국,수집운반차량,2006-08-18,031-215-3507,경기도 수원시청,2024-08-23,3740000,경기도 수원시
㈜해주환경,경기도 수원시 권선구 오목천로 275-6(고색동),경기도 수원시 권선구 고색동 235-2,37.24928593,126.9900272,폐기물수집및운반업,,40-01-01+40-01-02+40-01-03+40-01-04+40-01-05+40-02-06+40-02-07+40-02-08+40-02-09+40-03-10+40-03-11+4,전국,수집운반차량,2005-10-31,031-244-4986,경기도 수원시청,2024-08-23,3740000,경기도 수원시
삼원건설㈜,경기도 수원시 권선구 탑동로11번길 58-10,경기도 수원시 권선구 탑동 821-13,37.26990511,126.9719585,폐기물수집및운반업,,40-01-01+40-01-02+40-01-03+40-01-04+40-01-05+40-02-06+40-02-07+40-02-08+40-02-09+40-03-10+40-03-11+4,전국,수집운반차량,2003-07-18,031-293-0404,경기도 수원시청,2024-08-23,3740000,경기도 수원시
㈜삼부이엔씨,경기도 수원시 팔달구 고화로 111,경기도 수원시 팔달구 화서동 61-4,37.27918744,127.0064117,폐기물수집및운반업,,40-01-01+40-01-02+40-01-03+40-01-04+40-01-05+40-02-06+40-02-07+40-02-08+40-02-09+40-03-10+40-03-11+4,전국,수집운반차량,2003-07-18,031-248-7041,경기도 수원시청,2024-08-23,3740000,경기도 수원시
㈜하늘,경기도 수원시 권선구 매송고색로 751-30,경기도 수원시 권선구 고색동 7-102,37.25404053,126.9861768,폐기물수집및운반업,,40-01-01+40-01-02+40-01-03+40-01-04+40-01-05+40-02-06+40-02-07+40-02-08+40-02-09+40-03-10+40-03-11+4,전국,수집운반차량,2003-04-11,031-296-1881,경기도 수원시청,2024-08-23,3740000,경기도 수원시
동양개발㈜,경기도 수원시 장안구 장안로 296,경기도 수원시 장안구 정자동 541-46,37.30794956,126.9898652,폐기물수집및운반업,,40-01-01+40-01-02+40-01-03+40-01-04+40-01-05+40-02-06+40-02-07+40-02-08+40-02-09+40-03-10+40-03-11+4,전국,수집운반차량,1997-11-24,031-247-8407,경기도 수원시청,2024-08-23,3740000,경기도 수원시
무궁화유품서비스,경기도 수원시 영통구 영통로 100,"경기도 수원시 영통구 망포동 532-1, 206-10호",37.23783084,127.0587714,폐기물수집및운반업,,51-18-01+51-18-02+51-18-03+51-18-99+51-20-23+51-20-99+51-27-03+51-27-99+51-28-01+51-28-02+51-28-03+5,전국,수집운반차량,2024-07-30,,경기도 수원시청,2024-08-23,3740000,경기도 수원시
㈜위드환경,"경기도 수원시 영통구 영통로200번길 21, 304-1602호",경기도 수원시 영통구 영통동 1106,37.24467977,127.0578517,폐기물수집및운반업,,51-03-00+51-18-00+51-19-00+51-20-00+51-27-00+51-28-00+51-29-00+51-30-00,전국,수집운반차량,2024-07-19,,경기도 수원시청,2024-08-23,3740000,경기도 수원시
㈜석영환경,경기도 수원시 권선구 세권로 112-1(세류동),경기도 수원시 권선구 세류동 874-1,37.25746965,127.0165282,폐기물수집및운반업,,51-38-01,전국,수집운반차량,2023-06-21,,경기도 수원시청,2024-08-23,3740000,경기도 수원시
건웅기업,경기도 수원시 권선구 세권로 112-1(세류동),경기도 수원시 권선구 세류동 874-1,37.25746965,127.0165282,폐기물수집및운반업,,51-38-01,전국,수집운반차량,2023-06-21,,경기도 수원시청,2024-08-23,3740000,경기도 수원시
다움환경,경기도 수원시 권선구 세권로 112-1(세류동),경기도 수원시 권선구 세류동 874-1,37.25746965,127.0165282,폐기물수집및운반업,,51-38-01,전국,수집운반차량,2023-02-02,,경기도 수원시청,2024-08-23,3740000,경기도 수원시
다온자원환경,"경기도 수원시 영통구 법조로149번길 141-2, 1층",경기도 수원시 영통구 하동 975,37.29260947,127.0700773,폐기물수집및운반업,,51-01-00+51-02-00+51-03-00+51-04-00+51-05-00+51-06-00+51-07-00+51-08-00+51-09-00+51-10-00+51-11-00+5,전국,수집운반차량,2023-01-30,,경기도 수원시청,2024-08-23,3740000,경기도 수원시
삼환환경㈜,경기도 수원시 권선구 효행로 61,경기도 수원시 권선구 오목천동 415-3,37.23848361,126.9612866,폐기물수집및운반업,,51-03-01+51-20-01,전국,수집운반차량,2020-07-16,031-292-8644,경기도 수원시청,2024-08-23,3740000,경기도 수원시
국보환경,경기도 수원시 권선구 세권로 112-1,경기도 수원시 권선구 세류동 874-1,37.25746965,127.0165282,폐기물수집및운반업,,51-38-01,전국,수집운반차량,2020-05-02,031-224-2000,경기도 수원시청,2024-08-23,3740000,경기도 수원시
㈜예진환경,경기도 수원시 권선구 일월천로15번길 21-6,경기도 수원시 권선구 구운동 903-3,37.28406383,126.971791,폐기물수집및운반업,,51-38-01,전국,수집운반차량,2019-12-31,031-291-4238,경기도 수원시청,2024-08-23,3740000,경기도 수원시
다인,경기도 수원시 장안구 정조로922번길 34,경기도 수원시 장안구 영화동 164-13,37.29075725,127.0151449,폐기물수집및운반업,,51-27-99,전국,수집운반차량,2019-12-26,031-242-7183,경기도 수원시청,2024-08-23,3740000,경기도 수원시
㈜장애인협동조합환경,경기도 수원시 권선구 동수원로146번길 136-3,경기도 수원시 권선구 곡반정동 512-4,37.24465719,127.0340878,폐기물수집및운반업,,51-38-01,전국,수집운반차량,2015-12-05,031-221-4131,경기도 수원시청,2024-08-23,3740000,경기도 수원시
㈜율림,경기도 수원시 장안구 정조로 947,경기도 수원시 장안구 영화동 306-1,37.29200912,127.011435,폐기물수집및운반업,,51-22-00,전국,수집운반차량,2014-11-20,031-242-2160,경기도 수원시청,2024-08-23,3740000,경기도 수원시
㈜펩스환경,경기도 수원시 권선구 곡선로50번길 6-19,경기도 수원시 권선구 곡반정동 566-2,37.23875446,127.0285771,폐기물수집및운반업,,51-38-01,전국,수집운반차량,2014-10-06,031-235-1888,경기도 수원시청,2024-08-23,3740000,경기도 수원시
샘자원,경기도 수원시 영통구 동수원로 513,경기도 수원시 영통구 매탄동 101-9,37.27314879,127.0465496,폐기물수집및운반업,,51-01-00+51-02-00+51-03-00+51-04-00+51-05-00+51-06-00+51-07-00+51-08-00+51-09-00+51-10-00+51-11-00+5,전국,수집운반차량,2014-06-12,031-287-9957,경기도 수원시청,2024-08-23,3740000,경기도 수원시
영광상사,경기도 수원시 영통구 매봉로27번길 8-3,경기도 수원시 영통구 매탄동 1207-4,37.27067764,127.0520686,폐기물수집및운반업,,51-01-00+51-02-00+51-03-00+51-04-00+51-05-00+51-06-00+51-07-00+51-08-00+51-09-00+51-10-00+51-11-00+5,전국,수집운반차량,2014-04-09,031-211-7344,경기도 수원시청,2024-08-23,3740000,경기도 수원시
온누리환경㈜,경기도 수원시 권선구 경수대로 355,경기도 수원시 권선구 권선동 989-1,37.25842753,127.0226277,폐기물수집및운반업,,51-38-01,전국,수집운반차량,2013-03-06,031-224-5879,경기도 수원시청,2024-08-23,3740000,경기도 수원시
㈜원예기업,경기도 수원시 권선구 정조로 253-108,경기도 수원시 권선구 대황교동 263,37.23638181,127.0169495,폐기물수집및운반업,,51-03-01+51-38-01+51-99-00+51-17-03,전국,수집운반차량,1997-12-12,031-233-2165,경기도 수원시청,2024-08-23,3740000,경기도 수원시
더엠알오㈜,"경기도 수원시 영통구 매영로238번길 21,6층(원천동)",경기도 수원시 영통구 원천동 368-1,37.26005272,127.063198,폐기물수집및운반업,,51-01-01+51-02-01+51-03-01+51-05-01+51-08-02+51-08-04+51-20-01+51-21-01,전국,수집운반차량,2023-04-07,031-215-2087,경기도 수원시청,2024-08-23,3740000,경기도 수원시
㈜제주수산물류,경기도 수원시 권선구 금곡로 229,경기도 수원시 권선구 금곡동 1115-3,37.27531094,126.9553557,폐기물수집및운반업,,51-03-01+51-20-01,전국,수집운반차량,2019-12-18,031-227-1088,경기도 수원시청,2024-08-23,3740000,경기도 수원시
㈜에코파크수원,경기도 수원시 영통구 매탄로 55-1,경기도 수원시 영통구 매탄동 1169-3,37.2562364,127.0407305,폐기물수집및운반업,,51-03-01+51-20-01+51-20-06+51-20-07+51-20-10+51-20-11+51-20-99,전국,수집운반차량,2019-10-11,,경기도 수원시청,2024-08-23,3740000,경기도 수원시
태인물류,경기도 수원시 팔달구 월드컵로 353,경기도 수원시 팔달구 우만동 481-2,37.28904829,127.0314343,폐기물수집및운반업,,51-01-00+51-02-00+51-03-00+51-04-00+51-05-00+51-06-00+51-07-00+51-08-00+51-09-00+51-10-00+51-11-00+5,전국,수집운반차량,2019-07-29,031-241-1208,경기도 수원시청,2024-08-23,3740000,경기도 수원시
(주)해든바이오,경기도 수원시 권선구 구운로73번길 26-13,경기도 수원시 권선구 구운동 934-3,37.28072491,126.9709279,폐기물수집및운반업,,51-03-01+51-16-00+51-17-29+51-38-02+51-38-03,전국,수집운반차량,2017-04-13,031-278-6266,경기도 수원시청,2024-08-23,3740000,경기도 수원시
㈜브이아이에스건설,경기도 수원시 권선구 권선로 308-18,경기도 수원시 권선구 고색동 986,37.25407432,126.9853765,폐기물수집및운반업,,51-02-01+51-02-99,전국,수집운반차량,2016-12-08,031-227-3855,경기도 수원시청,2024-08-23,3740000,경기도 수원시
이씨오환경,경기도 수원시 영통구 매영로 85,경기도 수원시 영통구 매탄동 1215-4,37.26815634,127.0520945,폐기물수집및운반업,,51-03-01+51-03-02+51-20-00+51-27-00,전국,수집운반차량,2015-01-07,031-252-4500,경기도 수원시청,2024-08-23,3740000,경기도 수원시
코스모스환경,경기도 수원시 영통구 삼성로 274,경기도 수원시 영통구 원천동 332-2,37.26561297,127.064363,폐기물수집및운반업,,51-03-01+51-03-02+51-20-00+51-27-00,전국,수집운반차량,2014-10-01,031-222-2972,경기도 수원시청,2024-08-23,3740000,경기도 수원시
다이렉트스트랩㈜,경기도 수원시 권선구 구운로47번길 42,경기도 수원시 권선구 구운동 953-8,37.27796134,126.9709584,폐기물수집및운반업,,51-03-00+51-15-00+51-18-00+51-20-00+51-28-00+51-29-00+51-30-00,전국,수집운반차량,2014-01-27,031-291-9301,경기도 수원시청,2024-08-23,3740000,경기도 수원시
스틸뱅크,경기도 수원시 권선구 효원로256번길 15,경기도 수원시 권선구 권선동 1013-1,37.26119023,127.0295435,폐기물수집및운반업,,51-03-01+51-03-02+51-12-00+51-15-00+51-20-00+51-27-00+51-28-00+51-29-00+51-33-00,전국,수집운반차량,2016-01-06,031-377-8209,경기도 수원시청,2024-08-23,3740000,경기도 수원시
삼명자원,경기도 수원시 권선구 매송고색로804번길 54,경기도 수원시 권선구 고색동 114-5,37.25139164,126.9908076,폐기물수집및운반업,,51-03-01,전국,수집운반차량,2013-10-28,031-898-5327,경기도 수원시청,2024-08-23,3740000,경기도 수원시
삼환환경(주),경기도 수원시 권선구 효행로 61,경기도 수원시 권선구 오목천동 415-3,37.23848361,126.9612866,폐기물수집및운반업,,51-03-01+51-20-99+51-29-01+51-99-00,전국,수집운반차량,2008-05-02,031-292-8644,경기도 수원시청,2024-08-23,3740000,경기도 수원시
고려개발㈜,경기도 수원시 권선구 매송고색로 848,경기도 수원시 권선구 평동 53,37.25629262,126.9959876,폐기물수집및운반업,,51-01-00+51-02-00+51-03-00+51-04-00+51-05-00+51-06-00+51-07-00+51-08-00+51-09-00+51-10-00+51-11-00+5,전국,수집운반차량,2008-04-25,031-292-4500,경기도 수원시청,2024-08-23,3740000,경기도 수원시
백상기업㈜,경기도 수원시 권선구 서수원로63번길 139,경기도 수원시 권선구 오목천동 885,37.23177664,126.9709396,폐기물수집및운반업,,51-01-00+51-02-00+51-03-00+51-04-00+51-05-00+51-06-00+51-07-00+51-08-00+51-09-00+51-10-00+51-11-00+5,전국,수집운반차량,2008-05-02,031-292-4450,경기도 수원시청,2024-08-23,3740000,경기도 수원시
삼아건설㈜,경기도 수원시 권선구 곡선로 42,경기도 수원시 권선구 곡반정동 564-5,37.2388783,127.0291572,폐기물수집및운반업,,51-02-05,전국,수집운반차량,2007-10-19,031-232-1703,경기도 수원시청,2024-08-23,3740000,경기도 수원시
(유)수나로이팜,전라남도 신안군 지도읍 두류산길 335-69,전라남도 신안군 지도읍 감정리 1840-1,35.07066548,126.1698405,폐기물종합재활용업,,51-01-01+51-01-03+51-01-04+51-01-05+51-01-06+51-01-07+51-01-08+51-01-99,,,2023-02-03,061-882-8372,전라남도 신안군청,2024-06-11,5010000,전라남도 신안군
(유)청풍산업,전라남도 신안군 압해읍 수련태도길 182,전라남도 신안군 압해읍 신장리 865,34.83468247,126.3702058,폐기물수집·운반업,,51-03-01+51-03-02+51-03-08+51-03-99+51-15-01+51-20-01+51-20-06+51-20-07+51-20-99+51-27-02,,,2022-09-21,061-802-2001,전라남도 신안군청,2024-06-11,5010000,전라남도 신안군
(유)금래원,전라남도 신안군 압해읍 원가룡길 84-79,전라남도 신안군 압해읍 가룡리 산126-2,34.91795111,126.302352,폐기물중간재활용업,,51-03-01+51-03-02+51-03-05+51-03-06+51-03-07+51-03-08+51-27-02+51-27-03+51-28-02+51-29-03+91-06-01+9,,,2021-09-24,061-287-6979,전라남도 신안군청,2024-06-11,5010000,전라남도 신안군
(유)제일환경,전라남도 신안군 압해읍 압해로 475-3,전라남도 신안군 압해읍 분매리 596-91,34.84651576,126.3469507,폐기물중간재활용업,,51-03-01+51-29-99+91-04-00,,,2021-07-19,061-277-3311,전라남도 신안군청,2024-06-11,5010000,전라남도 신안군
(유)천사의희망산업,전라남도 신안군 압해읍 수련의금길 187,전라남도 신안군 압해읍 신장리 802,34.85244643,126.3566431,폐기물중간재활용업,,51-03-01+51-03-02+51-03-03+51-03-06+51-03-07+51-03-08+51-27-02+51-28-02+51-29-03,,,2017-05-22,061-271-7766,전라남도 신안군청,2024-06-11,5010000,전라남도 신안군
가온개발,전라남도 신안군 자은면 중부로 2646,전라남도 신안군 자은면 유각리 280-1,34.86711359,126.0558059,폐기물수집·운반업,,51-20-09,,,2020-12-03,061-261-1123,전라남도 신안군청,2024-06-11,5010000,전라남도 신안군
(유)제일환경,전라남도 신안군 압해읍 압해로 475-3,전라남도 신안군 압해읍 분매리 596-91,34.84651576,126.3469507,폐기물수집·운반업,,51-03-01+51-03-02+51-03-08+51-04-99+51-05-99+51-06-03+51-06-99+51-07-01+51-07-02+51-08-01+51-08-02+5,,,2018-02-05,061-277-3311,전라남도 신안군청,2024-06-11,5010000,전라남도 신안군
용마환경,전라남도 신안군 지도읍 해제지도로 1241,전라남도 신안군 지도읍 읍내리 293-4,35.05908816,126.2109552,폐기물수집·운반업,,51-17-99,,,2015-11-11,,전라남도 신안군청,2024-06-11,5010000,전라남도 신안군
한신환경,전라남도 신안군 압해읍 송림양알길 70,전라남도 신안군 압해읍 복룡리 819-1,34.89476181,126.3369979,폐기물수집·운반업,,51-03-01+51-03-02+51-03-03+51-03-04+51-03-05+51-03-06+51-03-07+51-03-08+51-03-99+51-20-01+51-20-06+5,,,2021-12-07,,전라남도 신안군청,2024-06-11,5010000,전라남도 신안군
(유)시대산업,"전라남도 신안군 압해읍 원신장길 7, 2층",전라남도 신안군 압해읍 신장리 208-4,34.82892639,126.3510492,폐기물수집·운반업,,51-03-01+51-03-02+51-20-06+51-28-01+51-28-02+51-29-03,,,2021-07-19,061-261-2005,전라남도 신안군청,2024-06-11,5010000,전라남도 신안군
(유)누리천사환경,전라남도 신안군 압해읍 원신장길 7,전라남도 신안군 압해읍 신장리 208-4,34.82892639,126.3510492,폐기물수집·운반업,,51-03-01+51-03-05+51-03-06+51-03-08+51-03-99+51-20-09+51-28-01+51-28-02+51-28-03+51-29-99,,,2021-03-08,,전라남도 신안군청,2024-06-11,5010000,전라남도 신안군
(유)신안환경,"전라남도 신안군 암태면 중부로 1922, 3층",전라남도 신안군 암태면 기동리 452-2,34.83798112,126.1120857,폐기물수집·운반업,,51-03-01+51-03-05+51-03-06+51-03-08+51-03-99+51-20-09+51-28-01+51-28-02+51-28-03+51-29-99,,,2020-07-03,061-461-2000,전라남도 신안군청,2024-06-11,5010000,전라남도 신안군
㈜보상원,전라남도 신안군 암태면 장단고길 7-19,전라남도 신안군 암태면 단고리 27-8,34.82819951,126.1128467,폐기물수집·운반업,,51-03-01+51-20-06+51-20-99+51-27-99,,,2019-03-13,061-287-6976,전라남도 신안군청,2024-06-11,5010000,전라남도 신안군
주식회사 더킨피드,전라남도 장흥군 장흥읍 산단로 309,전라남도 장흥군 장흥읍 해당리 647-3,34.6940749673,126.9330399928,폐기물종합재활용업,기타,51-17-02,전국,사료화시설,2021-05-10,061-804-7741,전라남도 장흥군청,2024-10-01,4910000,전라남도 장흥군
주식회사 더킨피드,전라남도 장흥군 장흥읍 산단로 309,전라남도 장흥군 장흥읍 해당리 647-3,34.6940749673,126.9330399928,폐기물종합재활용업,기타,51-17-01,전국,사료화시설,2021-05-10,061-804-7741,전라남도 장흥군청,2024-10-01,4910000,전라남도 장흥군
농업회사법인 나눔산업(유),전라남도 장흥군 장흥읍 장흥대로 3046-129,전라남도 장흥군 장흥읍 덕제리 17-1,34.6490554942,126.8947411549,폐기물종합재활용업,기타,51-17-29,전국,퇴비화시설,2022-06-15,070-8805-0794,전라남도 장흥군청,2024-10-01,4910000,전라남도 장흥군
농업회사법인 (유)자연산업,전라남도 장흥군 회진면 가학회진로 663-97,"전라남도 장흥군 회진면 진목리 922, 925, 926, 928번지",34.4680683500,126.9171333000,폐기물종합재활용업,기타,51-17-29,전국,부숙토발효시설,2020-01-29,061-867-0029,전라남도 장흥군청,2024-10-01,4910000,전라남도 장흥군
농업회사법인 (유)자연산업,전라남도 장흥군 회진면 가학회진로 663-97,"전라남도 장흥군 회진면 진목리 922, 925, 926, 928번지",34.4680683500,126.9171333000,폐기물종합재활용업,기타,51-01-06,전국,부숙토발효시설,2020-01-29,061-867-0029,전라남도 장흥군청,2024-10-01,4910000,전라남도 장흥군
농업회사법인 (유)자연산업,전라남도 장흥군 회진면 가학회진로 663-97,"전라남도 장흥군 회진면 진목리 922, 925, 926, 928번지",34.4680683500,126.9171333000,폐기물종합재활용업,기타,51-01-02,전국,부숙토발효시설,2020-01-29,061-867-0029,전라남도 장흥군청,2024-10-01,4910000,전라남도 장흥군
농업회사법인주식회사 자연과전남,전라남도 장흥군 용산면 두암신풍길 60,전라남도 장흥군 용산면 풍길리 1,34.6197426806,126.9883903850,폐기물종합재활용업,기타,51-17-29,전국,퇴비화시설,2017-05-01,061-864-9634,전라남도 장흥군청,2024-10-01,4910000,전라남도 장흥군
농업회사법인주식회사 자연과전남,전라남도 장흥군 용산면 두암신풍길 60,전라남도 장흥군 용산면 풍길리 1,34.6197426806,126.9883903850,폐기물종합재활용업,기타,51-17-24,전국,퇴비화시설,2017-05-01,061-864-9634,전라남도 장흥군청,2024-10-01,4910000,전라남도 장흥군
농업회사법인주식회사 자연과전남,전라남도 장흥군 용산면 두암신풍길 60,전라남도 장흥군 용산면 풍길리 1,34.6197426806,126.9883903850,폐기물종합재활용업,기타,51-17-23,전국,퇴비화시설,2017-05-01,061-864-9634,전라남도 장흥군청,2024-10-01,4910000,전라남도 장흥군
농업회사법인주식회사 자연과전남,전라남도 장흥군 용산면 두암신풍길 60,전라남도 장흥군 용산면 풍길리 1,34.6197426806,126.9883903850,폐기물종합재활용업,기타,51-17-22,전국,퇴비화시설,2017-05-01,061-864-9634,전라남도 장흥군청,2024-10-01,4910000,전라남도 장흥군
농업회사법인주식회사 자연과전남,전라남도 장흥군 용산면 두암신풍길 60,전라남도 장흥군 용산면 풍길리 1,34.6197426806,126.9883903850,폐기물종합재활용업,기타,51-17-21,전국,퇴비화시설,2017-05-01,061-864-9634,전라남도 장흥군청,2024-10-01,4910000,전라남도 장흥군
농업회사법인주식회사 자연과전남,전라남도 장흥군 용산면 두암신풍길 60,전라남도 장흥군 용산면 풍길리 1,34.6197426806,126.9883903850,폐기물종합재활용업,기타,51-17-19,전국,퇴비화시설,2017-05-01,061-864-9634,전라남도 장흥군청,2024-10-01,4910000,전라남도 장흥군
농업회사법인주식회사 자연과전남,전라남도 장흥군 용산면 두암신풍길 60,전라남도 장흥군 용산면 풍길리 1,34.6197426806,126.9883903850,폐기물종합재활용업,기타,51-17-03,전국,퇴비화시설,2017-05-01,061-864-9634,전라남도 장흥군청,2024-10-01,4910000,전라남도 장흥군
농업회사법인주식회사 자연과전남,전라남도 장흥군 용산면 두암신풍길 60,전라남도 장흥군 용산면 풍길리 1,34.6197426806,126.9883903850,폐기물종합재활용업,기타,51-17-02,전국,퇴비화시설,2017-05-01,061-864-9634,전라남도 장흥군청,2024-10-01,4910000,전라남도 장흥군
농업회사법인주식회사 자연과전남,전라남도 장흥군 용산면 두암신풍길 60,전라남도 장흥군 용산면 풍길리 1,34.6197426806,126.9883903850,폐기물종합재활용업,기타,51-17-01,전국,퇴비화시설,2017-05-01,061-864-9634,전라남도 장흥군청,2024-10-01,4910000,전라남도 장흥군
농업회사법인주식회사 자연과전남,전라남도 장흥군 용산면 두암신풍길 60,전라남도 장흥군 용산면 풍길리 1,34.6197426806,126.9883903850,폐기물종합재활용업,기타,51-01-99,전국,퇴비화시설,2017-05-01,061-864-9634,전라남도 장흥군청,2024-10-01,4910000,전라남도 장흥군
농업회사법인주식회사 자연과전남,전라남도 장흥군 용산면 두암신풍길 60,전라남도 장흥군 용산면 풍길리 1,34.6197426806,126.9883903850,폐기물종합재활용업,기타,51-01-06,전국,퇴비화시설,2017-05-01,061-864-9634,전라남도 장흥군청,2024-10-01,4910000,전라남도 장흥군
농업회사법인주식회사 자연과전남,전라남도 장흥군 용산면 두암신풍길 60,전라남도 장흥군 용산면 풍길리 1,34.6197426806,126.9883903850,폐기물종합재활용업,기타,51-01-02,전국,퇴비화시설,2017-05-01,061-864-9634,전라남도 장흥군청,2024-10-01,4910000,전라남도 장흥군
농업회사법인주식회사 자연과전남,전라남도 장흥군 용산면 두암신풍길 60,전라남도 장흥군 용산면 풍길리 1,34.6197426806,126.9883903850,폐기물종합재활용업,기타,51-01-01,전국,퇴비화시설,2017-05-01,061-864-9634,전라남도 장흥군청,2024-10-01,4910000,전라남도 장흥군
다오케이리사이클링,전라남도 장흥군 장평면 농공단지길 17,전라남도 장흥군 장평면 봉림리 395-1,34.8085862021,126.9303844537,폐기물종합재활용업,기타,51-03-08,전국,세척절단압축용융시설,2017-08-01,061-863-0135,전라남도 장흥군청,2024-10-01,4910000,전라남도 장흥군
다오케이리사이클링,전라남도 장흥군 장평면 농공단지길 17,전라남도 장흥군 장평면 봉림리 395-1,34.8085862021,126.9303844537,폐기물종합재활용업,기타,51-03-01,전국,세척절단압축용융시설,2017-08-01,061-863-0135,전라남도 장흥군청,2024-10-01,4910000,전라남도 장흥군
우리해양환경 유한회사 장흥지점,전라남도 장흥군 장평면 농공단지길 34,전라남도 장흥군 장평면 봉림리 397-5,34.8072191423,126.9308963037,폐기물종합재활용업,기타,51-03-01,전국,압축감용시설,2008-11-04,061-000-0000,전라남도 장흥군청,2024-10-01,4910000,전라남도 장흥군
우리해양환경 유한회사 장흥지점,전라남도 장흥군 장평면 농공단지길 34,전라남도 장흥군 장평면 봉림리 397-5,34.8072191423,126.9308963037,폐기물종합재활용업,기타,51-03-08,전국,압축감용시설,2008-11-04,061-000-0000,전라남도 장흥군청,2024-10-01,4910000,전라남도 장흥군
우리해양환경 유한회사 장흥지점,전라남도 장흥군 장평면 농공단지길 34,전라남도 장흥군 장평면 봉림리 397-5,34.8072191423,126.9308963037,폐기물종합재활용업,기타,51-03-07,전국,압축감용시설,2008-11-04,061-000-0000,전라남도 장흥군청,2024-10-01,4910000,전라남도 장흥군
우리해양환경 유한회사 장흥지점,전라남도 장흥군 장평면 농공단지길 34,전라남도 장흥군 장평면 봉림리 397-5,34.8072191423,126.9308963037,폐기물종합재활용업,기타,51-03-06,전국,압축감용시설,2008-11-04,061-000-0000,전라남도 장흥군청,2024-10-01,4910000,전라남도 장흥군
우리해양환경 유한회사 장흥지점,전라남도 장흥군 장평면 농공단지길 34,전라남도 장흥군 장평면 봉림리 397-5,34.8072191423,126.9308963037,폐기물종합재활용업,기타,51-03-05,전국,압축감용시설,2008-11-04,061-000-0000,전라남도 장흥군청,2024-10-01,4910000,전라남도 장흥군
우리해양환경 유한회사 장흥지점,전라남도 장흥군 장평면 농공단지길 34,전라남도 장흥군 장평면 봉림리 397-5,34.8072191423,126.9308963037,폐기물종합재활용업,기타,51-03-03,전국,압축감용시설,2008-11-04,061-000-0000,전라남도 장흥군청,2024-10-01,4910000,전라남도 장흥군
유한회사 상지,전라남도 장흥군 장평면 고정길 26,전라남도 장흥군 장평면 두봉리 353-5,34.8061741100,127.0140085000,폐기물종합재활용업,기타,51-19-00,전국,부숙토발효시설,2013-04-29,061-863-7228,전라남도 장흥군청,2024-10-01,4910000,전라남도 장흥군
유한회사 상지,전라남도 장흥군 장평면 고정길 26,전라남도 장흥군 장평면 두봉리 353-5,34.8061741100,127.0140085000,폐기물종합재활용업,기타,51-17-29,전국,부숙토발효시설,2013-04-29,061-863-7228,전라남도 장흥군청,2024-10-01,4910000,전라남도 장흥군
유한회사 상지,전라남도 장흥군 장평면 고정길 26,전라남도 장흥군 장평면 두봉리 353-5,34.8061741100,127.0140085000,폐기물종합재활용업,기타,51-01-99,전국,부숙토발효시설,2013-04-29,061-863-7228,전라남도 장흥군청,2024-10-01,4910000,전라남도 장흥군
유한회사 상지,전라남도 장흥군 장평면 고정길 26,전라남도 장흥군 장평면 두봉리 353-5,34.8061741100,127.0140085000,폐기물종합재활용업,기타,51-01-08,전국,부숙토발효시설,2013-04-29,061-863-7228,전라남도 장흥군청,2024-10-01,4910000,전라남도 장흥군
유한회사 상지,전라남도 장흥군 장평면 고정길 26,전라남도 장흥군 장평면 두봉리 353-5,34.8061741100,127.0140085000,폐기물종합재활용업,기타,51-01-07,전국,부숙토발효시설,2013-04-29,061-863-7228,전라남도 장흥군청,2024-10-01,4910000,전라남도 장흥군
유한회사 상지,전라남도 장흥군 장평면 고정길 26,전라남도 장흥군 장평면 두봉리 353-5,34.8061741100,127.0140085000,폐기물종합재활용업,기타,51-01-06,전국,부숙토발효시설,2013-04-29,061-863-7228,전라남도 장흥군청,2024-10-01,4910000,전라남도 장흥군
유한회사 상지,전라남도 장흥군 장평면 고정길 26,전라남도 장흥군 장평면 두봉리 353-5,34.8061741100,127.0140085000,폐기물종합재활용업,기타,51-01-04,전국,부숙토발효시설,2013-04-29,061-863-7228,전라남도 장흥군청,2024-10-01,4910000,전라남도 장흥군
유한회사 상지,전라남도 장흥군 장평면 고정길 26,전라남도 장흥군 장평면 두봉리 353-5,34.8061741100,127.0140085000,폐기물종합재활용업,기타,51-01-02,전국,부숙토발효시설,2013-04-29,061-863-7228,전라남도 장흥군청,2024-10-01,4910000,전라남도 장흥군
농업회사법인 유한회사 전남산업,전라남도 장흥군 용산면 두암신풍길 72,전라남도 장흥군 용산면 풍길리 669,34.6203596600,126.9878044000,폐기물종합재활용업,기타,51-17-29,전국,퇴비화시설,2015-04-01,061-864-9634,전라남도 장흥군청,2024-10-01,4910000,전라남도 장흥군
농업회사법인 유한회사 전남산업,전라남도 장흥군 용산면 두암신풍길 72,전라남도 장흥군 용산면 풍길리 669,34.6203596600,126.9878044000,폐기물종합재활용업,기타,51-17-24,전국,퇴비화시설,2015-04-01,061-864-9634,전라남도 장흥군청,2024-10-01,4910000,전라남도 장흥군
농업회사법인 유한회사 전남산업,전라남도 장흥군 용산면 두암신풍길 72,전라남도 장흥군 용산면 풍길리 669,34.6203596600,126.9878044000,폐기물종합재활용업,기타,51-17-23,전국,퇴비화시설,2015-04-01,061-864-9634,전라남도 장흥군청,2024-10-01,4910000,전라남도 장흥군
농업회사법인 유한회사 전남산업,전라남도 장흥군 용산면 두암신풍길 72,전라남도 장흥군 용산면 풍길리 669,34.6203596600,126.9878044000,폐기물종합재활용업,기타,51-17-22,전국,퇴비화시설,2015-04-01,061-864-9634,전라남도 장흥군청,2024-10-01,4910000,전라남도 장흥군
농업회사법인 유한회사 전남산업,전라남도 장흥군 용산면 두암신풍길 72,전라남도 장흥군 용산면 풍길리 669,34.6203596600,126.9878044000,폐기물종합재활용업,기타,51-17-21,전국,퇴비화시설,2015-04-01,061-864-9634,전라남도 장흥군청,2024-10-01,4910000,전라남도 장흥군
농업회사법인 유한회사 전남산업,전라남도 장흥군 용산면 두암신풍길 72,전라남도 장흥군 용산면 풍길리 669,34.6203596600,126.9878044000,폐기물종합재활용업,기타,51-17-19,전국,퇴비화시설,2015-04-01,061-864-9634,전라남도 장흥군청,2024-10-01,4910000,전라남도 장흥군
농업회사법인 유한회사 전남산업,전라남도 장흥군 용산면 두암신풍길 72,전라남도 장흥군 용산면 풍길리 669,34.6203596600,126.9878044000,폐기물종합재활용업,기타,51-17-03,전국,퇴비화시설,2015-04-01,061-864-9634,전라남도 장흥군청,2024-10-01,4910000,전라남도 장흥군
농업회사법인 유한회사 전남산업,전라남도 장흥군 용산면 두암신풍길 72,전라남도 장흥군 용산면 풍길리 669,34.6203596600,126.9878044000,폐기물종합재활용업,기타,51-17-02,전국,퇴비화시설,2015-04-01,061-864-9634,전라남도 장흥군청,2024-10-01,4910000,전라남도 장흥군
농업회사법인 유한회사 전남산업,전라남도 장흥군 용산면 두암신풍길 72,전라남도 장흥군 용산면 풍길리 669,34.6203596600,126.9878044000,폐기물종합재활용업,기타,51-17-01,전국,퇴비화시설,2015-04-01,061-864-9634,전라남도 장흥군청,2024-10-01,4910000,전라남도 장흥군
농업회사법인 유한회사 전남산업,전라남도 장흥군 용산면 두암신풍길 72,전라남도 장흥군 용산면 풍길리 669,34.6203596600,126.9878044000,폐기물종합재활용업,기타,51-01-99,전국,퇴비화시설,2015-04-01,061-864-9634,전라남도 장흥군청,2024-10-01,4910000,전라남도 장흥군
농업회사법인 유한회사 전남산업,전라남도 장흥군 용산면 두암신풍길 72,전라남도 장흥군 용산면 풍길리 669,34.6203596600,126.9878044000,폐기물종합재활용업,기타,51-01-06,전국,퇴비화시설,2015-04-01,061-864-9634,전라남도 장흥군청,2024-10-01,4910000,전라남도 장흥군
농업회사법인 유한회사 전남산업,전라남도 장흥군 용산면 두암신풍길 72,전라남도 장흥군 용산면 풍길리 669,34.6203596600,126.9878044000,폐기물종합재활용업,기타,51-01-02,전국,퇴비화시설,2015-04-01,061-864-9634,전라남도 장흥군청,2024-10-01,4910000,전라남도 장흥군
농업회사법인 유한회사 전남산업,전라남도 장흥군 용산면 두암신풍길 72,전라남도 장흥군 용산면 풍길리 669,34.6203596600,126.9878044000,폐기물종합재활용업,기타,51-01-01,전국,퇴비화시설,2015-04-01,061-864-9634,전라남도 장흥군청,2024-10-01,4910000,전라남도 장흥군
농업회사법인 유한회사 그린백,전라남도 장흥군 장평면 농공단지길 36,전라남도 장흥군 장평면 봉림리 397-6,34.8070475300,126.9313963000,폐기물종합재활용업,기타,51-19-00,전국,파쇄분쇄압축시설,2014-09-12,061-864-9988,전라남도 장흥군청,2024-10-01,4910000,전라남도 장흥군
농업회사법인 유한회사 그린백,전라남도 장흥군 장평면 농공단지길 36,전라남도 장흥군 장평면 봉림리 397-6,34.8070475300,126.9313963000,폐기물종합재활용업,기타,51-17-23,전국,파쇄분쇄압축시설,2014-09-12,061-864-9988,전라남도 장흥군청,2024-10-01,4910000,전라남도 장흥군
(유)장흥환경산업,전라남도 장흥군 장평면 평동로 513,전라남도 장흥군 장평면 녹양리 398,34.8070130200,127.0025022000,폐기물종합재활용업,기타,51-20-99,전국,파쇄분쇄시설,2016-11-21,061-864-7772,전라남도 장흥군청,2024-10-01,4910000,전라남도 장흥군
(유)장흥환경산업,전라남도 장흥군 장평면 평동로 513,전라남도 장흥군 장평면 녹양리 398,34.8070130200,127.0025022000,폐기물종합재활용업,기타,51-20-24,전국,파쇄분쇄시설,2016-11-21,061-864-7772,전라남도 장흥군청,2024-10-01,4910000,전라남도 장흥군
(유)장흥환경산업,전라남도 장흥군 장평면 평동로 513,전라남도 장흥군 장평면 녹양리 398,34.8070130200,127.0025022000,폐기물종합재활용업,기타,51-20-23,전국,파쇄분쇄시설,2016-11-21,061-864-7772,전라남도 장흥군청,2024-10-01,4910000,전라남도 장흥군
(유)장흥환경산업,전라남도 장흥군 장평면 평동로 513,전라남도 장흥군 장평면 녹양리 398,34.8070130200,127.0025022000,폐기물종합재활용업,기타,51-20-01,전국,파쇄분쇄시설,2016-11-21,061-864-7772,전라남도 장흥군청,2024-10-01,4910000,전라남도 장흥군
농업회사법인 주식회사 산과들,전라남도 장흥군 안양면 장수길 16-153,전라남도 장흥군 안양면 학송리 50-7,34.6504730761,127.0161324857,폐기물종합재활용업,기타,51-20-01,전국,파쇄분쇄시설,2013-07-29,061-863-2008,전라남도 장흥군청,2024-10-01,4910000,전라남도 장흥군
농업회사법인목인산업유한회사,전라남도 장흥군 장흥읍 장흥대로 3046-102,전라남도 장흥군 장흥읍 덕제리 23-1,34.6479543500,126.8946172000,폐기물종합재활용업,기타,51-17-29,전국,퇴비화시설,2013-07-23,070-8805-0794,전라남도 장흥군청,2024-10-01,4910000,전라남도 장흥군
(유)주안환경,전라남도 장흥군 장평면 농공단지길 45,전라남도 장흥군 장평면 봉림리 396-6,34.8069844984,126.9329801690,폐기물종합재활용업,파쇄,51-03-08,전국,세척절단압축용융시설,2012-12-18,061-285-0904,전라남도 장흥군청,2024-10-01,4910000,전라남도 장흥군
(유)주안환경,전라남도 장흥군 장평면 농공단지길 45,전라남도 장흥군 장평면 봉림리 396-6,34.8069844984,126.9329801690,폐기물종합재활용업,파쇄,51-03-01,전국,세척절단압축용융시설,2012-12-18,061-285-0904,전라남도 장흥군청,2024-10-01,4910000,전라남도 장흥군
유한회사 장흥환경산업,전라남도 장흥군 장평면 평동로 513,전라남도 장흥군 장평면 녹양리 398,34.8070130200,127.0025022000,폐기물중간재활용업,파쇄,51-03-01,전국,압축시설,2020-09-11,061-864-7772,전라남도 장흥군청,2024-10-01,4910000,전라남도 장흥군
주식회사 일등,전라남도 장흥군 장흥읍 흥성로 453-5,전라남도 장흥군 장흥읍 금산리 841,34.7056115800,126.9234727000,폐기물중간재활용업,파쇄,51-20-23,전국,파쇄분쇄시설,2020-04-08,061-864-8101,전라남도 장흥군청,2024-10-01,4910000,전라남도 장흥군
주식회사 일등,전라남도 장흥군 장흥읍 흥성로 453-5,전라남도 장흥군 장흥읍 금산리 841,34.7056115800,126.9234727000,폐기물중간재활용업,파쇄,51-03-01,전국,파쇄분쇄시설,2020-04-08,061-864-8101,전라남도 장흥군청,2024-10-01,4910000,전라남도 장흥군
농업회사법인(주)다솔,전라남도 장흥군 장흥읍 산단로 277,전라남도 장흥군 장흥읍 해당리 647-1 (주)다솔,34.6930949300,126.9307792000,폐기물중간재활용업,기타,51-17-07,전국,세척탈수건조시설,2012-11-28,061-863-5211,전라남도 장흥군청,2024-10-01,4910000,전라남도 장흥군
주영농산,전라남도 장흥군 장흥읍 행원4길 11,전라남도 장흥군 장흥읍 행원리 413,34.6958061043,126.9093875650,폐기물수집및운반업,기타,51-19-00,전국,수집운반차량,2021-08-23,061-862-4023,전라남도 장흥군청,2024-10-01,4910000,전라남도 장흥군
정남진상사,전라남도 장흥군 장흥읍 토요시장2길 46-1,전라남도 장흥군 장흥읍 기양리 115,34.6787638900,126.9030941000,폐기물수집및운반업,기타,51-19-00,전국,수집운반차량,2021-06-01,061-000-0000,전라남도 장흥군청,2024-10-01,4910000,전라남도 장흥군
유한회사 효젠테크,전라남도 장흥군 장흥읍 장흥대로 3307,전라남도 장흥군 장흥읍 충열리 172-1,34.6671513000,126.8905505000,폐기물수집및운반업,기타,51-29-99,전국,수집운반차량,2015-05-26,061-864-0721,전라남도 장흥군청,2024-10-01,4910000,전라남도 장흥군
유한회사 효젠테크,전라남도 장흥군 장흥읍 장흥대로 3307,전라남도 장흥군 장흥읍 충열리 172-1,34.6671513000,126.8905505000,폐기물수집및운반업,기타,51-29-02,전국,수집운반차량,2015-05-26,061-864-0721,전라남도 장흥군청,2024-10-01,4910000,전라남도 장흥군
유한회사 효젠테크,전라남도 장흥군 장흥읍 장흥대로 3307,전라남도 장흥군 장흥읍 충열리 172-1,34.6671513000,126.8905505000,폐기물수집및운반업,기타,51-29-01,전국,수집운반차량,2015-05-26,061-864-0721,전라남도 장흥군청,2024-10-01,4910000,전라남도 장흥군
유한회사 효젠테크,전라남도 장흥군 장흥읍 장흥대로 3307,전라남도 장흥군 장흥읍 충열리 172-1,34.6671513000,126.8905505000,폐기물수집및운반업,기타,51-20-07,전국,수집운반차량,2015-05-26,061-864-0721,전라남도 장흥군청,2024-10-01,4910000,전라남도 장흥군
유한회사 효젠테크,전라남도 장흥군 장흥읍 장흥대로 3307,전라남도 장흥군 장흥읍 충열리 172-1,34.6671513000,126.8905505000,폐기물수집및운반업,기타,51-20-01,전국,수집운반차량,2015-05-26,061-864-0721,전라남도 장흥군청,2024-10-01,4910000,전라남도 장흥군
유한회사 효젠테크,전라남도 장흥군 장흥읍 장흥대로 3307,전라남도 장흥군 장흥읍 충열리 172-1,34.6671513000,126.8905505000,폐기물수집및운반업,기타,51-18-99,전국,수집운반차량,2015-05-26,061-864-0721,전라남도 장흥군청,2024-10-01,4910000,전라남도 장흥군
유한회사 효젠테크,전라남도 장흥군 장흥읍 장흥대로 3307,전라남도 장흥군 장흥읍 충열리 172-1,34.6671513000,126.8905505000,폐기물수집및운반업,기타,51-18-02,전국,수집운반차량,2015-05-26,061-864-0721,전라남도 장흥군청,2024-10-01,4910000,전라남도 장흥군
유한회사 효젠테크,전라남도 장흥군 장흥읍 장흥대로 3307,전라남도 장흥군 장흥읍 충열리 172-1,34.6671513000,126.8905505000,폐기물수집및운반업,기타,51-18-01,전국,수집운반차량,2015-05-26,061-864-0721,전라남도 장흥군청,2024-10-01,4910000,전라남도 장흥군
유한회사 효젠테크,전라남도 장흥군 장흥읍 장흥대로 3307,전라남도 장흥군 장흥읍 충열리 172-1,34.6671513000,126.8905505000,폐기물수집및운반업,기타,51-17-04,전국,수집운반차량,2015-05-26,061-864-0721,전라남도 장흥군청,2024-10-01,4910000,전라남도 장흥군
유한회사 효젠테크,전라남도 장흥군 장흥읍 장흥대로 3307,전라남도 장흥군 장흥읍 충열리 172-1,34.6671513000,126.8905505000,폐기물수집및운반업,기타,51-03-99,전국,수집운반차량,2015-05-26,061-864-0721,전라남도 장흥군청,2024-10-01,4910000,전라남도 장흥군
유한회사 효젠테크,전라남도 장흥군 장흥읍 장흥대로 3307,전라남도 장흥군 장흥읍 충열리 172-1,34.6671513000,126.8905505000,폐기물수집및운반업,기타,51-03-08,전국,수집운반차량,2015-05-26,061-864-0721,전라남도 장흥군청,2024-10-01,4910000,전라남도 장흥군
유한회사 효젠테크,전라남도 장흥군 장흥읍 장흥대로 3307,전라남도 장흥군 장흥읍 충열리 172-1,34.6671513000,126.8905505000,폐기물수집및운반업,기타,51-03-06,전국,수집운반차량,2015-05-26,061-864-0721,전라남도 장흥군청,2024-10-01,4910000,전라남도 장흥군
유한회사 효젠테크,전라남도 장흥군 장흥읍 장흥대로 3307,전라남도 장흥군 장흥읍 충열리 172-1,34.6671513000,126.8905505000,폐기물수집및운반업,기타,51-03-04,전국,수집운반차량,2015-05-26,061-864-0721,전라남도 장흥군청,2024-10-01,4910000,전라남도 장흥군
유한회사 효젠테크,전라남도 장흥군 장흥읍 장흥대로 3307,전라남도 장흥군 장흥읍 충열리 172-1,34.6671513000,126.8905505000,폐기물수집및운반업,기타,51-03-03,전국,수집운반차량,2015-05-26,061-864-0721,전라남도 장흥군청,2024-10-01,4910000,전라남도 장흥군
유한회사 효젠테크,전라남도 장흥군 장흥읍 장흥대로 3307,전라남도 장흥군 장흥읍 충열리 172-1,34.6671513000,126.8905505000,폐기물수집및운반업,기타,51-03-02,전국,수집운반차량,2015-05-26,061-864-0721,전라남도 장흥군청,2024-10-01,4910000,전라남도 장흥군
유한회사 효젠테크,전라남도 장흥군 장흥읍 장흥대로 3307,전라남도 장흥군 장흥읍 충열리 172-1,34.6671513000,126.8905505000,폐기물수집및운반업,기타,51-03-01,전국,수집운반차량,2015-05-26,061-864-0721,전라남도 장흥군청,2024-10-01,4910000,전라남도 장흥군
(유)동진,전라남도 장흥군 장흥읍 흥성로 157,전라남도 장흥군 장흥읍 건산리 1,34.6829919200,126.9167059000,폐기물수집및운반업,기타,51-17-29,전국,수집운반차량,2007-12-04,061-863-5800,전라남도 장흥군청,2024-10-01,4910000,전라남도 장흥군
(유)동진,전라남도 장흥군 장흥읍 흥성로 157,전라남도 장흥군 장흥읍 건산리 1,34.6829919200,126.9167059000,폐기물수집및운반업,기타,51-17-19,전국,수집운반차량,2007-12-04,061-863-5800,전라남도 장흥군청,2024-10-01,4910000,전라남도 장흥군
(유)동진,전라남도 장흥군 장흥읍 흥성로 157,전라남도 장흥군 장흥읍 건산리 1,34.6829919200,126.9167059000,폐기물수집및운반업,기타,51-08-06,전국,수집운반차량,2007-12-04,061-863-5800,전라남도 장흥군청,2024-10-01,4910000,전라남도 장흥군
(유)동진,전라남도 장흥군 장흥읍 흥성로 157,전라남도 장흥군 장흥읍 건산리 1,34.6829919200,126.9167059000,폐기물수집및운반업,기타,51-06-99,전국,수집운반차량,2007-12-04,061-863-5800,전라남도 장흥군청,2024-10-01,4910000,전라남도 장흥군
(유)동진,전라남도 장흥군 장흥읍 흥성로 157,전라남도 장흥군 장흥읍 건산리 1,34.6829919200,126.9167059000,폐기물수집및운반업,기타,51-03-01,전국,수집운반차량,2007-12-04,061-863-5800,전라남도 장흥군청,2024-10-01,4910000,전라남도 장흥군
(유)동진,전라남도 장흥군 장흥읍 흥성로 157,전라남도 장흥군 장흥읍 건산리 1,34.6829919200,126.9167059000,폐기물수집및운반업,기타,51-02-01,전국,수집운반차량,2007-12-04,061-863-5800,전라남도 장흥군청,2024-10-01,4910000,전라남도 장흥군
(주)미래리서스,충청북도 옥천군 청산면 만월로 175,충청북도 옥천군 청산면 만월리 30,36.3743319348,127.797108,폐기물종합재활용업,기타,51-12-01,전국,반응시설(재활용),2024-01-10,043-733-7234,충청북도 옥천군,2024-09-27,4430000,충청북도 옥천군
(주)미래리서스,충청북도 옥천군 청산면 만월로 175,충청북도 옥천군 청산면 만월리 30,36.3743319348,127.797108,폐기물종합재활용업,기타,51-05-99,전국,반응시설(재활용),2024-01-10,043-733-7233,충청북도 옥천군,2024-09-27,4430000,충청북도 옥천군
(주)미래리서스,충청북도 옥천군 청산면 만월로 175,충청북도 옥천군 청산면 만월리 30,36.3743319348,127.797108,폐기물종합재활용업,기타,51-05-02,전국,반응시설(재활용),2024-01-10,043-733-7232,충청북도 옥천군,2024-09-27,4430000,충청북도 옥천군
(주)미래리서스,충청북도 옥천군 청산면 만월로 175,충청북도 옥천군 청산면 만월리 30,36.3743319348,127.797108,폐기물종합재활용업,기타,51-05-01,전국,반응시설(재활용),2024-01-10,043-733-7231,충청북도 옥천군,2024-09-27,4430000,충청북도 옥천군
(주)미래리서스,충청북도 옥천군 청산면 만월로 175,충청북도 옥천군 청산면 만월리 30,36.3743319348,127.797108,폐기물종합재활용업,기타,51-02-19,전국,반응시설(재활용),2024-01-10,043-733-7230,충청북도 옥천군,2024-09-27,4430000,충청북도 옥천군
(주)미래리서스,충청북도 옥천군 청산면 만월로 175,충청북도 옥천군 청산면 만월리 30,36.3743319348,127.797108,폐기물종합재활용업,기타,51-02-01,전국,반응시설(재활용),2024-01-10,043-733-7229,충청북도 옥천군,2024-09-27,4430000,충청북도 옥천군
(주)미래리서스,충청북도 옥천군 청산면 만월로 175,충청북도 옥천군 청산면 만월리 30,36.3743319348,127.797108,폐기물종합재활용업,기타,51-01-08,전국,반응시설(재활용),2024-01-10,043-733-7228,충청북도 옥천군,2024-09-27,4430000,충청북도 옥천군
(주)미래환경,"충청북도 옥천군 청산면 판수길 188-20, 사무소",충청북도 옥천군 청산면 인정리 962,36.3179971300,127.806921,폐기물수집및운반업,기타,91-99-00,옥천군,밀폐식차량,2023-12-28,,충청북도 옥천군,2024-09-27,4430000,충청북도 옥천군
(주)푸른생활환경,"충청북도 옥천군 청산면 남부로 1981, 주택",충청북도 옥천군 청산면 판수리 366-3,36.332198,127.807912,폐기물수집및운반업,기타,91-02-00,충청북도 옥천군+대전광역시+충청남도 계룡시+충청남도 공주시+충청북도 청주시+세종특별자치시,카고트럭+밀폐형덮개차량,2023-08-18,,충청북도 옥천군,2024-09-27,4430000,충청북도 옥천군
(주)푸른생활환경,"충청북도 옥천군 청산면 남부로 1981, 주택",충청북도 옥천군 청산면 판수리 366-3,36.332198,127.807912,폐기물수집및운반업,기타,51-38-01,충청북도 옥천군+대전광역시+충청남도 계룡시+충청남도 공주시+충청북도 청주시+세종특별자치시,카고트럭+밀폐형덮개차량,2023-08-18,,충청북도 옥천군,2024-09-27,4430000,충청북도 옥천군
코스모스환경,,충청북도 옥천군 청산면 지전리 89-13,36.3454404,127.7909791,폐기물수집및운반업,기타,22-12-00,전국,집게차+카고트럭,2016-08-04,,충청북도 옥천군,2024-09-27,4430000,충청북도 옥천군
양강재활용,충청북도 옥천군 청산면 남부로 2253,,36.3452972,127.7863607,폐기물수집및운반업,기타,22-12-00,,집게차+카고트럭,2015-06-19,043-731-0894,충청북도 옥천군,2024-09-27,4430000,충청북도 옥천군
참 웰빙 임업,충청북도 옥천군 이원면 건진2길 57-21,,36.2532612,127.6209995,폐기물종합재활용업,기타,51-20-99,전국,"파쇄,분쇄시설",2015-01-09,,충청북도 옥천군,2024-09-27,4430000,충청북도 옥천군
참 웰빙 임업,충청북도 옥천군 이원면 건진2길 57-21,,36.2532612,127.6209995,폐기물종합재활용업,기타,51-20-01,전국,"파쇄,분쇄시설",2015-01-09,,충청북도 옥천군,2024-09-27,4430000,충청북도 옥천군
(주)한일개발공사,충청북도 옥천군 옥천읍 양수로3길 2,,36.29873484,127.558703,폐기물수집및운반업,기타,10-00-00,충청북도 옥천군,밀폐식차량,2014-12-16,043-731-8811,충청북도 옥천군,2024-09-27,4430000,충청북도 옥천군
하나트랜스,충청북도 옥천군 청산면 판수길 245,충청북도 옥천군 청산면 효목리 617-2,36.3202612,127.8131153,폐기물종합재활용업,기타,51-29-99,충청북도 옥천군,절단시설+카고트럭,2013-08-30,043-731-4425,충청북도 옥천군,2024-09-27,4430000,충청북도 옥천군
신조광타이어(주),,충청북도 옥천군 옥천읍 장야리 231-1,36.301358,127.5826863,폐기물종합재활용업,기타,51-15-01,,"절단시설+파쇄,분쇄,탈피시설",2013-07-31,043-731-4801,충청북도 옥천군,2024-09-27,4430000,충청북도 옥천군
주식회사 에코크린,"충청북도 옥천군 청산면 대덕길 171, 공장",충청북도 옥천군 청산면 대덕리 467,36.29379764,127.7851341,폐기물종합재활용업,기타,91-06-01,전국,연료화시설,2013-07-10,070-4191-5300,충청북도 옥천군,2024-09-27,4430000,충청북도 옥천군
(주)풍림옥천지점,,충청북도 옥천군 옥천읍 매화리 55-4,36.29949266,127.601724,폐기물종합재활용업,기타,51-20-02,,,1900-01-01,,충청북도 옥천군,2024-09-27,4430000,충청북도 옥천군
(주)풍림옥천지점,,충청북도 옥천군 옥천읍 매화리 55-4,36.29949266,127.601724,폐기물종합재활용업,기타,51-17-21,,파쇄+분쇄시설,2013-06-26,043-732-5398,충청북도 옥천군,2024-09-27,4430000,충청북도 옥천군
송원농장,,충청북도 옥천군 안내면 오덕리 528-2,36.3886522,127.7076346,폐기물종합재활용업,기타,22-22-23,전국,그 외 재활용시설,2015-01-06,,충청북도 옥천군,2024-09-27,4430000,충청북도 옥천군
유창산업(주),충청북도 옥천군 청산면 인정길 96,충청북도 옥천군 청산면 인정리 381,36.32672072,127.7944554,폐기물종합재활용업,기타,51-99-00,전국,파쇄+분쇄시설+압축+압출+성형+주조시설+절단시설,2012-05-03,043-732-8070,충청북도 옥천군,2024-09-27,4430000,충청북도 옥천군
유창산업(주),충청북도 옥천군 청산면 인정길 96,충청북도 옥천군 청산면 인정리 381,36.32672072,127.7944554,폐기물종합재활용업,기타,51-03-01,전국,파쇄+분쇄시설+압축+압출+성형+주조시설+절단시설,2012-05-03,043-732-8070,충청북도 옥천군,2024-09-27,4430000,충청북도 옥천군
청지환경(주),"충청북도 옥천군 청산면 판수길 188-20, 사무소",충청북도 옥천군 청산면 인정리 962,36.31799713,127.806901,폐기물수집및운반업,기타,51-29-03,전국,덤프트럭+밀폐형덮개차량,2006-07-19,043-731-1795,충청북도 옥천군,2024-09-27,4430000,충청북도 옥천군
청지환경(주),"충청북도 옥천군 청산면 판수길 188-20, 사무소",충청북도 옥천군 청산면 인정리 962,36.31799713,127.806901,폐기물수집및운반업,기타,51-29-02,전국,덤프트럭+밀폐형덮개차량,2006-07-19,043-731-1795,충청북도 옥천군,2024-09-27,4430000,충청북도 옥천군
청지환경(주),"충청북도 옥천군 청산면 판수길 188-20, 사무소",충청북도 옥천군 청산면 인정리 962,36.31799713,127.806901,폐기물수집및운반업,기타,51-28-02,전국,덤프트럭+밀폐형덮개차량,2006-07-19,043-731-1795,충청북도 옥천군,2024-09-27,4430000,충청북도 옥천군
청지환경(주),"충청북도 옥천군 청산면 판수길 188-20, 사무소",충청북도 옥천군 청산면 인정리 962,36.31799713,127.806901,폐기물수집및운반업,기타,51-20-99,전국,덤프트럭+밀폐형덮개차량,2006-07-19,043-731-1795,충청북도 옥천군,2024-09-27,4430000,충청북도 옥천군
